stop_id,stop_name,stop_desc,stop_lat,stop_lon,zone_id,stop_url
2211600000902,"Jamna","",46.5646654881129,16.0231397889127,,
2211600001401,"Sveti Jurij ob Ščavnici","",46.5686396114905,16.0236779672975,,
2211600000901,"Jamna","",46.5645719019787,16.0230519127127,,
2211600001002,"Jamna Kocbek","",46.5561481690491,16.0322339802582,,
2211600001602,"Žihlava Trgovina","",46.5488654238574,16.0403840527724,,
2206300000402,"Drakovci Kovač","",46.5436607992741,16.0376108782562,,
2211600000701,"Grabšinci K","",46.5293269704776,16.0103513367779,,
2211600000801,"Grabšinci Breg","",46.5151952046669,16.0085215739767,,
2204200001401,"Senčak pri Juršincih","",46.5040152322737,16.0017960366424,,
2204200001601,"Zagorci","",46.5131689706066,15.9985475994509,,
2204200001201,"Oblaki","",46.506084117698,15.9751593888443,,
2204200000801,"Juršinci Podhostnik","",46.4958205342609,15.9640308820948,,
2204200000701,"Juršinci","",46.4863043329821,15.9680796083204,,
2209600001302,"Avtobusna postaja Ptuj","",46.4214378477102,15.8766981201461,,
2209600001401,"Bolnišnica","",46.4257844004128,15.8784947374201,,
2209600002102,"Dornavska cesta Merkur","",46.4255707217839,15.8935570315964,,
2209600002202,"Rogoznica novo Pokopališče","",46.4238052733074,15.9033877471913,,
2202400000502,"Dornava Dom","",46.4350992646749,15.9489193093944,,
2202400000401,"Dornava","",46.435405797848,15.9563989349367,,
2204200001701,"Žamenci K","",46.44112512652,15.9632643229043,,
2202400001202,"Žamenci GD","",46.4402667231655,15.9811896858854,,
2202400001102,"Slomi K","",46.444109337199,15.9932092116836,,
2202400000302,"Brezovci K","",46.4465727308676,16.0060812591724,,
2202400001002,"Prerad K","",46.4504867945004,16.0152099489326,,
2202400000601,"Lasigovci 19","",46.4529121326917,16.0219221842982,,
2208700000102,"Bresnica K","",46.442729295452,16.0308286718958,,
2208700000201,"Bresnica Trgovina","",46.4378776335356,16.0394154120566,,
2208700003402,"Podgorci 60","",46.4325227781045,16.0494026319491,,
2208700003501,"Podgorci Bombek","",46.4290385805918,16.0565580422708,,
2208700003802,"Sodinci","",46.4292708014763,16.0827599817264,,
2208700003702,"Senešci","",46.4256445338813,16.089894979011,,
2208700004401,"Velika Nedelja Trgovina","",46.4193027149543,16.1088533946589,,
2208700002702,"Mihovci pri Vel. Nedelji","",46.414232991752,16.1145588295749,,
2208700003002,"Ormož","",46.4084989440785,16.1505456623517,,
2209600000801,"Pacinje","",46.4501525872818,15.9352417040681,,
2204200001001,"Mostje","",46.4569743546748,15.9543575831287,,
2204200000102,"Gabrnik","",46.470739779645,15.9549085468246,,
2204200000201,"Gabrnik Šošterič","",46.4772457494152,15.9626265773775,,
2204200000700,"Juršinci","",46.486057821991,15.9681742418446,,
2204200000802,"Juršinci Podhostnik","",46.4954055897718,15.9641603584972,,
2204200001602,"Zagorci","",46.5132797738558,15.9990391311129,,
2211600000802,"Grabšinci Breg","",46.5151270774266,16.0086071554129,,
2211600000702,"Grabšinci K","",46.5292742711527,16.0104047986001,,
2206300000401,"Drakovci Kovač","",46.5436049001851,16.0377125226027,,
2211600001601,"Žihlava Trgovina","",46.5493609273221,16.0397699144014,,
2211600001001,"Jamna Kocbek","",46.5562804724187,16.0322877502953,,
2211600000402,"Čakova","",46.582377947338,16.0164552578815,,
2211600000602,"Grabonoš","",46.5888174917747,16.0064711523153,,
2211600000401,"Čakova","",46.5833385316307,16.0152806881669,,
2204200000202,"Gabrnik Šošterič","",46.4768961754732,15.9621135566116,,
2204200000101,"Gabrnik","",46.4715814326292,15.9552725025935,,
2204200001002,"Mostje","",46.4575452800546,15.9552717088999,,
2209600000802,"Pacinje","",46.4503105708171,15.935133007546,,
2209600001001,"Podvinci","",46.4381706283549,15.9265522815743,,
2209600001101,"Podvinci GD","",46.4316260995267,15.9160155418047,,
2209600002001,"Rogoznica","",46.4245384357858,15.8978087148578,,
2209600001402,"Bolnišnica","",46.4258612380905,15.8784002693627,,
2206300000901,"Mala Nedelja","",46.5226762283763,16.052713125934,,
2211300006602,"Zgornji Gladomes","",46.3880922309618,15.5023760422138,,
2211300005702,"Tinjska Gora","",46.3998530528348,15.4983404445461,,
2211300004601,"Sodrež","",46.4015914424578,15.4923386495154,,
2211300002401,"Malo Tinje","",46.4141315299004,15.4918451559583,,
2211300002501,"Modrič","",46.4099209512951,15.4706448216572,,
2217100001201,"Zlogona vas","",46.4013923101812,15.4698817378585,,
2211300001202,"Kebelj","",46.4114536248167,15.4551723781005,,
2211300003501,"Slovenska Bistrica","",46.3908130046429,15.5771759770028,,
2211300004101,"Slovenska Bistrica Mercator","",46.3877173463787,15.5691148971441,,
2211300003602,"Slovenska Bistrica Leonardo","",46.3839772770716,15.5646339583893,,
2211300004901,"Spodnja Ložnica K","",46.3766756466663,15.5489748187552,,
2211300004801,"Spodnja Ložnica Ipavec","",46.3784952236714,15.5388917327077,,
2211300006802,"Zgornja Ložnica K","",46.3829920029391,15.5228526216336,,
2211300001501,"Kostanjevec","",46.3942033447319,15.5195697659507,,
2211300001600,"Kostanjevec pri Slovenski Bistrici K","",46.3952036072862,15.5370648593097,,
2211300005402,"Spodnje Visole","",46.399594162908,15.5356767535916,,
2211300001602,"Kostanjevec pri Slovenski Bistrici K","",46.3951743040183,15.537114179023,,
2211300004001,"Slovenska Bistrica LD","",46.396643400415,15.5417769556643,,
2211300003702,"Slovenska Bistrica GD","",46.3961601395564,15.5494095097979,,
2211300003902,"Impol","",46.3968596608199,15.555324931368,,
2211300004201,"Slovenska Bistrica ZD","",46.3945935125589,15.5643705978158,,
2211300003801,"Grad","",46.3928708257506,15.5705521802377,,
2211300003802,"Grad","",46.3931225835899,15.5703721207579,,
2211300004202,"Slovenska Bistrica ZD","",46.3949759312617,15.5632938259823,,
2211300003901,"Impol","",46.3969511567563,15.5552509574967,,
2211300003701,"Slovenska Bistrica GD","",46.3962305295976,15.5493829047224,,
2211300001001,"Jožef pri Slovenski Bistrici","",46.3970291475142,15.5827857320433,,
2211300001302,"Klopce","",46.4089976269313,15.598996407778,,
2211300002802,"Pokoše","",46.4149877905839,15.6012407348537,,
2211300006902,"Zgornja Polskava","",46.4259851793689,15.6101044328083,,
2211300007101,"Zgornja Polskava Š","",46.4259784884398,15.6253885990963,,
2211300003402,"Sele pri Polskavi Kapela","",46.4205449371779,15.6321865552767,,
2211300005102,"Spodnja Polskava","",46.4133643066075,15.6370623985774,,
2211300005202,"Spodnja Polskava 83","",46.4078644020889,15.6381582193453,,
2211300003001,"Pragersko ŽP","",46.3944165404727,15.6606910692619,,
2211300002902,"Pragersko Marof","",46.3995666610995,15.6412930502006,,
2211300002002,"Leskovec K","",46.3880127145247,15.6304568235812,,
2211300002102,"Leskovec 23","",46.3874160142492,15.6217258592072,,
2211300006401,"Vrhloga","",46.3638149593627,15.6314965403265,,
2211300000402,"Črešnjevec Jurič","",46.3683545144385,15.6188109040613,,
2211300000301,"Črešnjevec","",46.3726871384534,15.6141496427183,,
2211300002302,"Lokanja vas","",46.3720040860238,15.5978627607475,,
2211300003401,"Sele pri Polskavi Kapela","",46.4206651315195,15.6321196120848,,
2211300007102,"Zgornja Polskava Š","",46.4259276829477,15.6256028861901,,
2211300006901,"Zgornja Polskava","",46.4266222852456,15.6112267272082,,
2211300002801,"Pokoše","",46.4159953364899,15.6009914801694,,
2211300001301,"Klopce","",46.4095763030147,15.5988502452996,,
2211300001002,"Jožef pri Slovenski Bistrici","",46.3966730508136,15.5813831712223,,
2211300005001,"Spodnja Nova vas","",46.3855428305418,15.5977187988983,,
2211300002301,"Lokanja vas","",46.3718748541941,15.5976109895967,,
2211300000302,"Črešnjevec","",46.3721938312593,15.6143355842213,,
2211300000401,"Črešnjevec Jurič","",46.3681738133998,15.6188980926033,,
2211300002101,"Leskovec 23","",46.3873507460914,15.6218032093452,,
2211300002001,"Leskovec K","",46.3879874116039,15.6305234953286,,
2211300002900,"Pragersko Marof","",46.3997009539468,15.642024153829,,
2211300002901,"Pragersko Marof","",46.3998174192185,15.642647574141,,
2211300003002,"Pragersko ŽP","",46.3945453046458,15.6606787146096,,
2211300004002,"Slovenska Bistrica LD","",46.3967204518366,15.5418217555902,,
2211300001601,"Kostanjevec pri Slovenski Bistrici K","",46.3952159407691,15.5371639556624,,
2211300001502,"Kostanjevec","",46.3944648364064,15.5188387501036,,
2211300006601,"Zgornji Gladomes","",46.3880342618446,15.5023728714734,,
2211300000701,"Dobrava pri Slovenski Bistrici","",46.3883924516245,15.5114922674254,,
2211300006702,"Zgornja Ložnica","",46.3892785017214,15.5141942729191,,
2211300001201,"Kebelj","",46.4115235075439,15.4552870848815,,
2211300002502,"Modrič","",46.4098195161461,15.4707034938074,,
2211300004602,"Sodrež","",46.4015591382805,15.4922775974361,,
2211300005701,"Tinjska Gora","",46.3999055757652,15.4982026629449,,
2211300007002,"Zgornja Polskava Gostilna Golob","",46.4296244073044,15.6258530692744,,
2209800000502,"Morje","",46.4385518019717,15.6344069484312,,
2209800000402,"Fram K","",46.4531841946842,15.6422230346482,,
2216000001802,"Radizel 63","",46.462326050749,15.6532634041369,,
2216000001702,"Radizel","",46.4668201598316,15.6571051629666,,
2216000002302,"Slivnica pri Mariboru","",46.4754468872945,15.6552586750467,,
2216000002502,"Spodnje Hoče K","",46.500534104273,15.6508364493852,,
2216000000102,"Bohova","",46.5098139515913,15.6526724701264,,
2207000024802,"Maribor Jeklotehna","",46.5178338437545,15.6511485394128,,
2207000025102,"Maribor Vema","",46.5257216146866,15.6477408434723,,
2207000021302,"Tržaška cesta ELKO","",46.5344157902945,15.6460125959174,,
2207000021001,"Tržaška  - Nasipna","",46.5438707210336,15.6490510108885,,
2207000002502,"City center","",46.559209084974,15.6512855330615,,
2207000024601,"Avtobusna postaja Maribor","",46.5595273032238,15.6557885112761,,
2207000021301,"Tržaška cesta ELKO","",46.5331158510584,15.6453876664276,,
2207000025101,"Maribor Vema","",46.5243624198842,15.6474840517493,,
2207000024801,"Maribor Jeklotehna","",46.5164702171248,15.6515771661744,,
2216000000101,"Bohova","",46.5085849193551,15.6518815466718,,
2216000002501,"Spodnje Hoče K","",46.4991729921025,15.6507458703192,,
2216000002301,"Slivnica pri Mariboru","",46.4771604546478,15.6540323629987,,
2216000001701,"Radizel","",46.4696907316873,15.6569003079503,,
2216000001801,"Radizel 63","",46.4623052820913,15.6530525149623,,
2209800000401,"Fram K","",46.4519935641999,15.6410142372146,,
2209800000501,"Morje","",46.4386011033771,15.6342208518452,,
2207000002501,"City center","",46.5585219920895,15.6509038302684,,
2211300007001,"Zgornja Polskava Gostilna Golob","",46.4301043137373,15.6266970557492,,
2207000021101,"Tržaška - Primorska","",46.5446671195074,15.6487679040955,,
2211300004902,"Spodnja Ložnica K","",46.3765243495751,15.5489332825484,,
2211300003601,"Slovenska Bistrica Leonardo","",46.3834272238772,15.5641931730588,,
2211300004102,"Slovenska Bistrica Mercator","",46.38819332908,15.5699692096476,,
2211300006301,"Vinarje","",46.3816847165181,15.5089879903378,,
2211300000901,"Gladomes","",46.3861140703136,15.4988858058943,,
2217100001101,"Ugovec","",46.3868560654991,15.4831294737697,,
2217100001002,"Straža pri Oplotnici","",46.3832532621996,15.4745384553054,,
2217100000201,"Čadram","",46.3850422952278,15.4602567803948,,
2217100001102,"Ugovec","",46.3867380832085,15.4831093633335,,
2211300000902,"Gladomes","",46.3857478934083,15.4997694514586,,
2211300006302,"Vinarje","",46.381573415697,15.5083090929461,,
2211300006801,"Zgornja Ložnica K","",46.3829474562782,15.5233968197884,,
2211300004802,"Spodnja Ložnica Ipavec","",46.3786896047363,15.5379641065792,,
2217100000701,"Oplotnica","",46.3843949677426,15.4477484021197,,
2217100000202,"Čadram","",46.3848782970792,15.460143137831,,
2217100001001,"Straža pri Oplotnici","",46.3832144745786,15.4741645703583,,
2211300001902,"Laporje K","",46.3556978322481,15.5962760453318,,
2211300004302,"Slovenska Bistrica ŽP","",46.3637597395355,15.5982397338172,,
2219800000101,"Makole","",46.3175986061145,15.6675516918027,,
2219800000202,"Makole Marof","",46.3231495815316,15.6743026659204,,
2219800000301,"Mostečno","",46.3397965536402,15.6678339161405,,
2219800000501,"Spodnja Ložnica pri Mostečnem","",46.3377384117501,15.6493736817105,,
2219800000801,"Zgornja Ložnica pri Mostečnem","",46.3337926060396,15.6419349239897,,
2211300000801,"Drumlažno","",46.3330118489938,15.6247080818945,,
2211300001401,"Kočno ob Ložnici","",46.3382357012185,15.6165014342018,,
2211300003201,"Pretrež","",46.345297839609,15.6087132078382,,
2211300001901,"Laporje K","",46.3556987586865,15.5964655653708,,
2211300001802,"Laporje","",46.3484909039767,15.5933113044064,,
2219800000401,"Pečke","",46.3336630252444,15.6746184578396,,
2211300004301,"Slovenska Bistrica ŽP","",46.3638132436757,15.5981559902747,,
2211300001903,"Laporje K","",46.3558289775706,15.5962488777899,,
2211300003202,"Pretrež","",46.3451897751622,15.6087299606564,,
2211300001402,"Kočno ob Ložnici","",46.3386827483832,15.6155423580896,,
2211300000802,"Drumlažno","",46.3324486160449,15.6251421289345,,
2219800000802,"Zgornja Ložnica pri Mostečnem","",46.3338703802001,15.6420988411822,,
2219800000502,"Spodnja Ložnica pri Mostečnem","",46.3376483982842,15.6493460436393,,
2219800000400,"Pečke","",46.3334394337449,15.674686628887,,
2219800000201,"Makole Marof","",46.3235434048389,15.6746116603069,,
2219800000102,"Makole","",46.3178063782455,15.6677448555118,,
2219800000302,"Mostečno","",46.3396812521063,15.6679734984211,,
2210600000602,"Ratanska vas","",46.2403027790633,15.6271239922781,,
2210600000801,"Rogaška Slatina","",46.2353849870664,15.6387716181875,,
2211300000201,"Cigonca","",46.3715163948302,15.5647735412599,,
2211300006201,"Videž","",46.3660597680253,15.5626744413853,,
2211300007601,"Križni Vrh 8","",46.3518018318303,15.5701044642881,,
2211300001701,"Križni Vrh","",46.3483093410695,15.5713479935944,,
2211300007701,"Križni Vrh 90","",46.3425090048143,15.5725187851348,,
2211300007502,"Zgornja Brežnica","",46.3337366941128,15.5737355176608,,
2220000000601,"Spodnja Brežnica","",46.3242890568755,15.5726235355501,,
2220000000501,"Poljčane ŽP","",46.313570564436,15.5770015961354,,
2220000000901,"Zgornje Poljčane","",46.3033885980657,15.5815544354021,,
2220000000201,"Lovnik","",46.2773357026004,15.5582315994039,,
2212400001802,"Pečica","",46.2670490765507,15.553663269258,,
2210600000301,"Gabrnik Spodnji","",46.2545892887686,15.5701242770435,,
2210600000501,"Podplat","",46.2445934189301,15.5758506772346,,
2210600001302,"Tekačevo","",46.2394316368255,15.6057523565995,,
2210600000601,"Ratanska vas","",46.2404307978216,15.6267531729975,,
2210600001301,"Tekačevo","",46.2397280636678,15.605130418683,,
2210600000503,"Podplat","",46.2454613656565,15.5745907377105,,
2210600000302,"Gabrnik Spodnji","",46.2545208320785,15.5702221122266,,
2212400001801,"Pečica","",46.2676517871999,15.5566759022478,,
2220000000202,"Lovnik","",46.2773269401399,15.5583238605947,,
2220000000602,"Spodnja Brežnica","",46.3239566847088,15.5727422005969,,
2211300007501,"Zgornja Brežnica","",46.3341012707403,15.5736064337765,,
2211300007702,"Križni Vrh 90","",46.3429481965764,15.5725835344055,,
2220000001101,"Modraže","",46.3114978111437,15.6325070078315,,
2220000000402,"Novake","",46.3092849007567,15.6281648045688,,
2220000000801,"Studenice","",46.3046398527536,15.6140534546768,,
2220000001001,"Brezje pri Poljčanah","",46.3068691286604,15.5946943106054,,
2220000000702,"Spodnje Poljčane Čoh","",46.3103495545956,15.5866770456163,,
2220000000101,"Globoko ob Dravinji","",46.3129997723901,15.6463174692551,,
2220000000802,"Studenice","",46.3043932227503,15.6125787899199,,
2220000000401,"Novake","",46.3091086343099,15.6276623228381,,
2220000001102,"Modraže","",46.311357535456,15.6330478546976,,
2220000000102,"Globoko ob Dravinji","",46.3131745916563,15.6465799962521,,
2220000000701,"Spodnje Poljčane Čoh","",46.3104917319584,15.5859304196555,,
2220000001002,"Brezje pri Poljčanah","",46.3066215108554,15.5953229806412,,
2220000001201,"Poljčane OŠ","",46.3116549323327,15.5807886956446,,
2209800000400,"Fram K","",46.4527695189001,15.6417568124796,,
2209600002800,"Spuhlja","",46.4077679473782,15.9170483584179,,
2209600003400,"Brstje","",46.4200289261507,15.9004364876108,,
2209600003501,"Dornavska cesta Lovec","",46.4242780960114,15.8980624774244,,
2209600002101,"Dornavska cesta Merkur","",46.4259614345324,15.8926282337472,,
2213500002402,"Videm pri Ptuju","",46.3691963169624,15.9019953234793,,
2213500002401,"Videm pri Ptuju","",46.3685675613508,15.9024991310933,,
2213500001202,"Pobrežje Trgovina","",46.3728946611897,15.8921533322253,,
2213500001102,"Pobrežje","",46.381772996166,15.8801684527857,,
2209600003000,"Suha veja","",46.3900303572227,15.8691407311426,,
2213500002002,"Tržec Trgovina","",46.3626158311822,15.8696206762179,,
2213500000701,"Jurovci","",46.3572193123601,15.8647583655651,,
2213500001302,"Popovci","",46.3540761675663,15.8517362214368,,
2213500002601,"Zgornja Pristava","",46.3519734028559,15.8337467287625,,
2213500000101,"Dolena Avguštin","",46.3504677122068,15.8137945066763,,
2213500000202,"Dolena Božičko","",46.3232870992536,15.8084482361932,,
2213500000300,"Dolena Dominc","",46.3175169750887,15.8152660396186,,
2213500000201,"Dolena Božičko","",46.3233442085743,15.8084910051944,,
2213500000100,"Dolena Avguštin","",46.3504858861288,15.8136698149377,,
2213500001401,"Sela","",46.3703668016325,15.829238499093,,
2213500001502,"Sela K","",46.3755932501401,15.8311141741247,,
2213500000802,"Lancova vas","",46.3717805894931,15.8530511871113,,
2213500002602,"Zgornja Pristava","",46.3519209842521,15.8334640992028,,
2213500001301,"Popovci","",46.3538143736803,15.8512905263949,,
2213500000702,"Jurovci","",46.3566220038752,15.8635388726018,,
2213500001101,"Pobrežje","",46.3815056096223,15.8802799514225,,
2213500001201,"Pobrežje Trgovina","",46.3728685657294,15.8919599305453,,
2213500001901,"Tržec Lipa","",46.3579959600871,15.8722975591904,,
2213500000801,"Lancova vas","",46.3718028270239,15.8540175758614,,
2213500001501,"Sela K","",46.3757592624817,15.8314243199439,,
2213500001402,"Sela","",46.3703235795442,15.8291251072553,,
2201800000502,"Drstelja K","",46.4774478705921,15.8665963759845,,
2201800000402,"Drstelja","",46.4843640891408,15.8520757513446,,
2201800001001,"Jiršovci","",46.492610548025,15.8436262529701,,
2201800001102,"Jiršovci K","",46.497709817262,15.8384452774683,,
2201800000602,"Gomila K","",46.4948190245279,15.8202272200942,,
2201800001101,"Jiršovci K","",46.4975976902097,15.8384420902862,,
2201800001002,"Jiršovci","",46.4925358105072,15.8435848356659,,
2201800001600,"Zasadi 3","",46.4978865766758,15.8748420579562,,
2201800001802,"Destrnik ZD","",46.4931386937425,15.8756045713308,,
2201800000202,"Destrnik","",46.4893990848219,15.8758308603459,,
2209600002401,"SŠC","",46.4265771902739,15.8703763662414,,
2209600000501,"Mestni Vrh 61","",46.4397666000477,15.8689918125773,,
2209600000402,"Mestni Vrh","",46.4453525957531,15.8733132880072,,
2209600000702,"Mestni Vrh Urek","",46.4514746624325,15.870853182527,,
2209600000901,"Placar 42","",46.4562469835246,15.8675122639157,,
2209600000102,"Drstelja 15","",46.4638835927424,15.8563489693631,,
2209600000601,"Mestni Vrh K","",46.4656011388573,15.8476492188593,,
2209600000101,"Drstelja 15","",46.4639414446336,15.8561089067757,,
2201800000201,"Destrnik","",46.4894851742923,15.8772972642586,,
2201800001801,"Destrnik ZD","",46.4933593808787,15.8757939956924,,
2201800000401,"Drstelja","",46.4843050951384,15.8520347483908,,
2201800000501,"Drstelja K","",46.4773812650953,15.8666113469562,,
2209600000902,"Placar 42","",46.4562768748547,15.8673663620543,,
2209600000701,"Mestni Vrh Urek","",46.4515783257723,15.8708009328225,,
2209600000401,"Mestni Vrh","",46.4458074508543,15.8732965847179,,
2209600000502,"Mestni Vrh 61","",46.4398576310848,15.8689934906603,,
2209600002402,"SŠC","",46.4266670382118,15.8699499235199,,
2209600002002,"Rogoznica","",46.424309323379,15.898383922478,,
2209600001100,"Podvinci GD","",46.4339760645711,15.9208910410753,,
2209600001201,"Podvinci Velovlek K","",46.4456943509809,15.9189277586844,,
2209600000202,"Kicar K","",46.4525246596152,15.9202699175399,,
2209600002701,"Spodnji Velovlek","",46.4647463901855,15.9199862798428,,
2201800001702,"Zgornji Velovlek","",46.4725835781753,15.9116596998397,,
2201800001202,"Levanjci","",46.4837290975958,15.9096723604823,,
2201800000101,"Desenci K","",46.4918052856261,15.908818243702,,
2201800001403,"Svetinci","",46.4985665215547,15.9041175704649,,
2218500000201,"Ločič","",46.5093888296636,15.8971183495753,,
2211300001702,"Križni Vrh","",46.3481381694439,15.5717775990686,,
2211300007603,"Križni Vrh 8","",46.3521059167872,15.5704563063569,,
2211300006202,"Videž","",46.3663398079813,15.5627670736692,,
2211300000202,"Cigonca","",46.3721925707372,15.5650395952338,,
2207000022302,"Veterinarska postaja","",46.5810826353053,15.6631037393387,,
2221000000201,"Jurovski Dol K","",46.6167094920845,15.7735386119493,,
2221000000401,"Jurovski Dol Krempl","",46.6151643301612,15.7666033331543,,
2208900001001,"Jurovski Dol Ketiš","",46.6163197948414,15.7567786177417,,
2208900000901,"Jurovski Dol Grubar","",46.6136955709093,15.748809849855,,
2208900002200,"Spodnji Jakobski Dol K","",46.6194951459111,15.7434235224222,,
2208900000301,"Jakob","",46.6277530032186,15.7356349967134,,
2208900002201,"Spodnji Jakobski Dol K","",46.6192856918591,15.7428239957037,,
2208900002102,"Slatenik","",46.6196912959413,15.7225127941235,,
2208900002402,"Vukovski Dol","",46.6142050989595,15.718573888427,,
2208900000502,"Jareninski Dol K","",46.6033209224329,15.7152900882543,,
2208900001702,"Pesniški Dvor","",46.5952849430699,15.7035462140022,,
2208900000202,"Dragučova","",46.5936717031105,15.6847940643815,,
2207000024201,"Košaki Kos","",46.5922208038441,15.6662658980181,,
2207000024301,"Košaki Opekarna","",46.5861651408457,15.6648534850098,,
2207000022301,"Veterinarska postaja","",46.5810526600136,15.6625928739524,,
2202600001302,"Velika Zimica","",46.5353225715735,15.7549804241666,,
2202600002101,"Zimica K","",46.5328078632531,15.7712801207692,,
2202600001901,"Zgornja Korena Hrastnik","",46.5276852407425,15.7771325413035,,
2202600001801,"Zgornja Korena Dvoršak","",46.5215187409081,15.7821461633959,,
2202600002301,"Žikarce Slanič","",46.5253471773822,15.7908407369869,,
2205800000202,"Dolge Njive Domiter","",46.5290912056033,15.7979815953199,,
2205800000301,"Dolge Njive Novak","",46.5297331758106,15.8119385445563,,
2205800001902,"Zavrh v Slovenskih goricah K","",46.5334714079199,15.8155105043127,,
2205800001201,"Selce","",46.5252717544163,15.8167820408378,,
2205800001801,"Zavrh","",46.538529630497,15.8263741185515,,
2207000007501,"Kneza Koclja-Vetrinjska","",46.5575992391132,15.6477539070276,,
2207000010802,"Magdalena","",46.5544608299994,15.6472252302897,,
2207000004601,"Europark","",46.5547221057857,15.6530621681675,,
2202600000502,"Dvorjane","",46.4955446750511,15.7708764072993,,
2202600000701,"Dvorjane Cerkev","",46.4910223525719,15.777201394799,,
2202600001502,"Vurberk K","",46.4851116134683,15.7869131292995,,
2202600000702,"Dvorjane Cerkev","",46.4910339519977,15.7773102589513,,
2202600000501,"Dvorjane","",46.4945625944051,15.772601448386,,
2202600001001,"Spodnji Duplek","",46.5008467879883,15.75458737792,,
2202600001101,"Spodnji Duplek Log","",46.5051107376778,15.7419647947515,,
2202600001201,"Spodnji Duplek Slanič","",46.507072501023,15.7311373636654,,
2202600001702,"Zgornji Duplek Pri križu","",46.5085794064766,15.7244811174386,,
2202600000100,"Zg. Duplek","",46.5141026279355,15.7183935717647,,
2202600002201,"Žitečka vas","",46.5167910972966,15.726433502668,,
2202600001601,"Zgornji Duplek 145 K","",46.5241865540192,15.7302582354259,,
2202600000802,"Mala Zimica","",46.5283188311735,15.7413279874832,,
2207000024302,"Košaki Opekarna","",46.5862779760506,15.6649504316594,,
2207000024202,"Košaki Kos","",46.5913852913666,15.6656306374388,,
2208900000201,"Dragučova","",46.5935349937724,15.6858490098783,,
2208900001701,"Pesniški Dvor","",46.5950961256485,15.703178344299,,
2208900000501,"Jareninski Dol K","",46.6032351740946,15.7155134151551,,
2208900002401,"Vukovski Dol","",46.6148937070805,15.7188994237437,,
2208900002101,"Slatenik","",46.6195910017701,15.7224735160278,,
2208900002202,"Spodnji Jakobski Dol K","",46.6192292408561,15.7429820812343,,
2208900000902,"Jurovski Dol Grubar","",46.6139903150764,15.7480898258603,,
2208900001002,"Jurovski Dol Ketiš","",46.6162301831631,15.7567145091303,,
2221000000402,"Jurovski Dol Krempl","",46.6149296324346,15.7665471096293,,
2221000000202,"Jurovski Dol K","",46.6166921871011,15.7739015077363,,
2221000000102,"Jurovski Dol","",46.60766203695,15.7840020153691,,
2211800000301,"Cirknica Posestvo","",46.6638538214986,15.6595085522058,,
2211800000701,"Jarenina K","",46.6703383102488,15.6626664254511,,
2211800002402,"Šentilj v Slov. goricah ŽP","",46.6750050284027,15.6567474356459,,
2211800002301,"Šentilj v Slov. goricah Obračališče","",46.6790024780658,15.6535935039177,,
2211800002201,"Šentilj v Slov. goricah Kosi","",46.6829078043208,15.6618483971175,,
2211800000101,"Ceršak K","",46.6904636652853,15.6716379876622,,
2211800004100,"Ceršak","",46.6971588047887,15.6675796506079,,
2211800000201,"Ceršak Tovarna","",46.7044944667528,15.6677939057239,,
2211800004102,"Ceršak","",46.6965506193143,15.6672105132367,,
2218500000202,"Ločič","",46.5088130246951,15.8975944467598,,
2218500000301,"Trnovska vas","",46.5197172284345,15.8873570974926,,
2218500000102,"Biš","",46.5292292102591,15.8853521147445,,
2220500001201,"Sveti Tomaž","",46.4834419138046,16.0796184459399,,
2220500000503,"Koračice GD","",46.488863354319,16.0863855168131,,
2220500000602,"Pršetinci K","",46.4820010409076,16.0974095983517,,
2220500000701,"Pršetinci Kapela","",46.4884588090928,16.1088749388886,,
2208700001801,"Lahonščak","",46.4825066762911,16.1124599477566,,
2218500000302,"Trnovska vas","",46.5197322048222,15.8870605678717,,
2218500000200,"Ločič","",46.5095438954025,15.8967755239342,,
2201800001404,"Svetinci","",46.4984484379341,15.9041438017685,,
2201800000102,"Desenci K","",46.4917654063625,15.9087214300748,,
2201800001201,"Levanjci","",46.483710992263,15.9095150714648,,
2201800001701,"Zgornji Velovlek","",46.4725379092122,15.9115545935138,,
2208700001702,"Lahonci 6","",46.4781068816365,16.1290684245752,,
2208700000903,"Ivanjkovci","",46.4625694639435,16.1571657150104,,
2208700001001,"Ivanjkovci Š","",46.4611832711118,16.1545626372079,,
2208700004102,"Strezetina Znamenje","",46.4559133077868,16.147542091809,,
2208700002501,"Litmerk Reš. grad","",46.4441433967003,16.1509479468123,,
2208700002402,"Litmerk Kapela","",46.4391981414216,16.1539969514394,,
2208700000401,"Dobrava Kovačija","",46.4206066256356,16.1493121042339,,
2208700000402,"Dobrava Kovačija","",46.4207338620343,16.1494395599171,,
2208700002401,"Litmerk Kapela","",46.4392295295193,16.1540546583038,,
2208700002502,"Litmerk Reš. grad","",46.444129411036,16.1510435490705,,
2208700004101,"Strezetina Znamenje","",46.4559266042449,16.147639987405,,
2208700001002,"Ivanjkovci Š","",46.4612316675253,16.1546922597624,,
2208700001701,"Lahonci 6","",46.478150053118,16.1285223345868,,
2208700001802,"Lahonščak","",46.4826077404877,16.1124710728326,,
2220500000500,"Koračice GD","",46.4890425923663,16.0854893260976,,
2220500001402,"Radoslavci Bratuša 68","",46.499034694661,16.0963020646816,,
2208700004000,"Spodnji Ključarovci Trgovina","",46.4521311356274,16.1033066090175,,
2220500000301,"Gornji Ključarovci K","",46.4582964075517,16.1001771639268,,
2220500000202,"Gornji Ključarovci","",46.4676378086311,16.0987707216959,,
2220500000402,"Hranjigovci","",46.4753884058795,16.0975276450056,,
2220500000600,"Pršetinci K","",46.4820456404812,16.0974519880973,,
2220500000504,"Koračice GD","",46.4888931517073,16.0865534389711,,
2208700004002,"Spodnji Ključarovci Trgovina","",46.4519270620081,16.1034124480833,,
2208700001800,"Lahonščak","",46.4825130880996,16.1124960277044,,
2220500000702,"Pršetinci Kapela","",46.4885272955614,16.1089220841936,,
2220500000601,"Pršetinci K","",46.4821026642169,16.0975324117898,,
2220500001401,"Radoslavci Bratuša 68","",46.4989663479425,16.0963930650073,,
2204200000902,"Juršinci Vodol","",46.4913961532859,15.984897998641,,
2202400000800,"Polenšak","",46.4719439303226,15.9995673996144,,
2204200000501,"Hlaponci 22","",46.4687604653081,15.9805737065037,,
2204200000601,"Hlaponci Kapela","",46.4626685817216,15.9750943300735,,
2204200001101,"Mostje pri Ptuju K","",46.4530638611362,15.9682997344987,,
2204200001000,"Mostje","",46.4575743399131,15.955434640696,,
2204200000401,"Grlinci","",46.5019558720376,15.9451422827398,,
2202800000101,"Cunkovci","",46.4174176676807,15.9772138994544,,
2202800001100,"Zagojiči","",46.403503164513,15.9803166471341,,
2202800000701,"Muretinci","",46.383964641078,15.9974347888763,,
2202800000502,"Mala vas","",46.3907049781644,16.0043396779467,,
2202800000302,"Gajevci","",46.3965753506575,16.0170452947863,,
2202800000901,"Placerovci","",46.4014018723152,16.0265277586345,,
2202800000200,"Formin","",46.4041158649086,16.0380598602355,,
2202800000402,"Gorišnica","",46.4118915935293,16.015477172377,,
2202800000401,"Gorišnica","",46.41189122773,16.0138209658737,,
2202800001201,"Zamušani","",46.4237002354935,16.0419886544277,,
2202800000201,"Formin","",46.4042252375811,16.0380386428357,,
2202800000902,"Placerovci","",46.4014049474714,16.026447053668,,
2202800000301,"Gajevci","",46.3965970084653,16.0169283074555,,
2202800000501,"Mala vas","",46.3907990465591,16.0044047246934,,
2219100000801,"Žetale","",46.2753210529345,15.7933064461661,,
2219100000101,"Čermožiše Vrh","",46.2588493588403,15.7590593128518,,
2219100000302,"Jesenice pri Žetalah","",46.2861233530642,15.766550374969,,
2206900000801,"Nadole","",46.2989527721681,15.7662692131588,,
2206900001601,"Sitež","",46.3065892388773,15.7710302204891,,
2206900001001,"Planjsko","",46.3127797092274,15.7684874120872,,
2206900000901,"Naraplje Š","",46.3235928460825,15.7611099512763,,
2206900000401,"Jelovice pri Majšperku K","",46.3304633412368,15.7553082299493,,
2206900001901,"Stogovci","",46.3387793295226,15.753214135973,,
2206900002601,"Stanečka vas","",46.3395381577877,15.7453129072727,,
2206900002201,"Majšperk K","",46.3470892943795,15.7384124022821,,
2206900000602,"Majšperk","",46.3497993788799,15.735303199755,,
2206900000601,"Majšperk","",46.349860672166,15.7349096900579,,
2206900002202,"Majšperk K","",46.3470685726944,15.7391577399082,,
2206900002602,"Stanečka vas","",46.3394681985972,15.7453485929284,,
2206900000402,"Jelovice pri Majšperku K","",46.3304397815615,15.7552215188126,,
2220500000401,"Hranjigovci","",46.4754471784724,16.0974884299077,,
2220500000201,"Gornji Ključarovci","",46.467519149646,16.0986932792037,,
2220500000302,"Gornji Ključarovci K","",46.4585027272773,16.0999445248691,,
2204200000100,"Gabrnik","",46.471401673613,15.9552231046277,,
2204200001100,"Mostje pri Ptuju K","",46.4529515738644,15.9681875068242,,
2204200000602,"Hlaponci Kapela","",46.4628352653931,15.975215892029,,
2204200000502,"Hlaponci 22","",46.4687231849148,15.9806959718938,,
2204200000901,"Juršinci Vodol","",46.4914722112366,15.9849606468274,,
2202800000600,"Moškanjci","",46.4168117704641,15.9973511161269,,
2202800001001,"Tibolci","",46.4291593749073,16.0005430396038,,
2202800000602,"Moškanjci","",46.4169936757657,15.9953558722879,,
2202800000601,"Moškanjci","",46.4168296535186,15.9961049451193,,
2206900000902,"Naraplje Š","",46.3235382825747,15.7610837010122,,
2206900001002,"Planjsko","",46.3128361535872,15.7683910777296,,
2206900001602,"Sitež","",46.3066657880456,15.7710526384496,,
2206900000802,"Nadole","",46.2990442363176,15.7662068294667,,
2219100000301,"Jesenice pri Žetalah","",46.286048734964,15.7664925854606,,
2219100000802,"Žetale","",46.2753218432449,15.7934752975804,,
2205800002101,"Zgornji Žerjavci Transformator","",46.6027350337113,15.8349592247982,,
2205800002202,"Zgornji Žerjavci Vrabl","",46.5909666258907,15.8295611060383,,
2205800000501,"Lenart v Slov. goricah","",46.576742238576,15.8296595669533,,
2206300000301,"Drakovci","",46.5394172412749,16.0382802565049,,
2206300001002,"Mala Nedelja K","",46.5349422502902,16.054769882132,,
2206300000501,"Kuršinci","",46.525370756014,16.0673338639443,,
2206300001502,"Sitarovci","",46.5232425417833,16.0820494051417,,
2206300001401,"Radoslavci","",46.5245699150624,16.1001819087493,,
2206300001801,"Vogričevci","",46.5203938283132,16.1130126901685,,
2206300000101,"Branoslavci","",46.5246306301836,16.1258110154979,,
2206300002101,"Cezanjevci","",46.5201575351702,16.1517666840379,,
2206300000702,"Ljutomer Tehnostroj","",46.5234031103828,16.1940988473615,,
2206300000701,"Ljutomer Tehnostroj","",46.5238768595555,16.1937832364368,,
2206300000601,"Ljutomer","",46.5182499996773,16.1976657703988,,
2206300002102,"Cezanjevci","",46.5201986673153,16.151693391247,,
2206300000102,"Branoslavci","",46.524695776086,16.1257414037142,,
2206300001802,"Vogričevci","",46.5205521876091,16.1130137849526,,
2206300001402,"Radoslavci","",46.5247561064456,16.100513009276,,
2206300001501,"Sitarovci","",46.5233146578369,16.0817758058998,,
2206300000502,"Kuršinci","",46.5254304910132,16.0673603036555,,
2206300001000,"Mala Nedelja K","",46.5349253360735,16.0549097853563,,
2206300001001,"Mala Nedelja K","",46.5349704281598,16.0548658680079,,
2206300000302,"Drakovci","",46.539420220487,16.0383520700981,,
2209600007702,"Ptuj pod Gradom","",46.4222808169445,15.868750607412,,
2209600007301,"Ptuj Maistrova ulica","",46.4345703216452,15.8575070495657,,
2209600008501,"Štuki","",46.4448583126896,15.8484200177709,,
2209600003602,"Grajena","",46.4587686146013,15.8402928520736,,
2209600006102,"Krčevina pri Vurberku","",46.4712819285016,15.8291528246734,,
2209600006001,"Krčevina pri Vurberk mostu","",46.4792459636086,15.8213721374206,,
2202600001401,"Vurberk","",46.4879905499334,15.8055011142623,,
2202600000901,"Marof pri Vurberku","",46.4892724186607,15.7973854366401,,
2202600000301,"Ciglence Kogolšek","",46.4948523232146,15.7850419870356,,
2202600000602,"Dvorjane 46","",46.4921139347536,15.7780296306917,,
2211800002701,"Trate","",46.7065952607721,15.7859387106893,,
2211800002900,"Trate Grad","",46.6974127720551,15.7867526443226,,
2211800002802,"Trate 48","",46.6973631529384,15.7984066082835,,
2218100000501,"Lokavec Trgovina","",46.6944835097296,15.8099257794339,,
2218100000201,"Grabe pri Tratah","",46.6846130600891,15.8186022257542,,
2218100000601,"Rožengrunt Kapela","",46.6781457948934,15.8244081310461,,
2218100000701,"Rožengrunt Žaga","",46.6679236289567,15.829076860101,,
2218100000401,"Lokavec pri Tratah K","",46.6606256603069,15.8359009464064,,
2218100001102,"Zgornja Ščavnica Žamotna vas K","",46.6616181192611,15.8080887445597,,
2211800000502,"Dražen Vrh","",46.6735802384169,15.7958875089481,,
2218100001101,"Zgornja Ščavnica Žamotna vas K","",46.6608130272536,15.8087898008198,,
2218100000301,"Ledinek","",46.6474625809371,15.813332465863,,
2218100001202,"Žice","",46.6239920169989,15.8242031796152,,
2218100001301,"Žice Perko","",46.6206266606681,15.8341816799884,,
2218100000902,"Sv. Ana v Slovenskih Goricah K","",46.6132624119424,15.8411064341088,,
2202600000102,"Zg. Duplek","",46.5146887817762,15.7182268256796,,
2207000003001,"Dogoše GD","",46.5233988394213,15.7039587294216,,
2207000020402,"Tovarna vozil","",46.5284736206084,15.6725586155106,,
2207000001001,"Bolnica","",46.5528913040571,15.6465712231869,,
2207000007902,"Koroška - Poštna","",46.55775232958,15.6440738245351,,
2207000020802,"Tretja gimnazija","",46.560748187758,15.6404465169059,,
2207000005902,"Greenwich","",46.5545174028858,15.6593708189616,,
2207000021401,"TVD Partizan-Čufarjeva","",46.5547268640461,15.6667397132315,,
2207000002802,"Čufarjeva-Dom upokojencev","",46.5545237953022,15.6737542432973,,
2207000022102,"VeljkaVlahoviča-S31","",46.5516346777362,15.676800375665,,
2207000022202,"VeljkaVlahoviča-TUŠ","",46.5475733098653,15.6747218265448,,
2207000002402,"Cesta XIV.divizije-samopostrežna","",46.5442627208196,15.6778298718958,,
2207000003902,"Dupleška - Tezenska","",46.5409694535424,15.683566005468,,
2207000001501,"Brezje  trgovina","",46.5364687096454,15.6884346421,,
2207000003802,"Dupleška - Jarčeva","",46.5322331036725,15.6947024204117,,
2207000003002,"Dogoše GD","",46.5237164686252,15.7038981480352,,
2202600000103,"Zg. Duplek","",46.5142136780208,15.7182328204224,,
2202600001701,"Zgornji Duplek Pri križu","",46.5088083687666,15.7234298871385,,
2202600001202,"Spodnji Duplek Slanič","",46.5068169683437,15.7324604654486,,
2202600001102,"Spodnji Duplek Log","",46.5048445733171,15.7421519202717,,
2202600001002,"Spodnji Duplek","",46.5007833204264,15.7544354463164,,
2206900000702,"Majšperk Breg","",46.3384759386946,15.7366371007421,,
2206900000501,"Lešje","",46.344288450335,15.7231104143097,,
2219800000602,"Stopno","",46.3366513748151,15.7048873683053,,
2219800000702,"Strug","",46.3353806488551,15.7001614006738,,
2207000005001,"Glavni trg-Židovska","",46.5574064116033,15.6468484509024,,
2219800000402,"Pečke","",46.33391709572,15.6754717831128,,
2219800000701,"Strug","",46.3352159214805,15.7000927148286,,
2219800000601,"Stopno","",46.3365657974855,15.7046117524672,,
2206900000502,"Lešje","",46.3443810818486,15.7231912203186,,
2214300000402,"Pestike","",46.3516844836365,16.0468661430984,,
2219600000202,"Brezovec","",46.342510271637,16.0262961848479,,
2219600000301,"Brezovec 40","",46.3451232757313,16.0173963831042,,
2219600000504,"Cirkulane K","",46.3466860247923,16.0010279759059,,
2219600000402,"Cirkulane","",46.3446864995357,15.9959785101956,,
2219600001202,"Pristava pri Cirkulanah","",46.3418560014556,15.9862945539176,,
2219600001302,"Pristava K","",46.3349517402835,15.9801788289538,,
2219600001201,"Pristava pri Cirkulanah","",46.3417977590926,15.9867543502712,,
2219600000401,"Cirkulane","",46.3448103110073,15.9970998878349,,
2219600000503,"Cirkulane K","",46.3465918418567,16.0010609891246,,
2219600000601,"Dolane","",46.3583638808291,16.0002324102522,,
2219600000701,"Dolane Kokol","",46.3639519408634,15.9998293639984,,
2219600000104,"Borl","",46.371375440146,15.9977314422363,,
2216800000901,"Stojnci Trgovina","",46.3817657744927,15.9823150245637,,
2216800000801,"Stojnci","",46.3795501462275,15.9747251482267,,
2216800000202,"Bukovci","",46.3874548208638,15.9599053258959,,
2216800000402,"Nova vas pri Markovcih K","",46.390664506481,15.9441910169729,,
2216800000302,"Markovci","",46.3985676660676,15.9312067460971,,
2216800000301,"Markovci","",46.3979926458985,15.9327677156168,,
2216800000401,"Nova vas pri Markovcih K","",46.3903426433559,15.9451524909514,,
2216800000201,"Bukovci","",46.386932628066,15.9606266937086,,
2216800000802,"Stojnci","",46.3794933454036,15.9745631364493,,
2216800000902,"Stojnci Trgovina","",46.3817229341858,15.9823589223786,,
2202800000702,"Muretinci","",46.3849094304721,15.9962692394258,,
2219600000105,"Borl","",46.369960971409,15.9980045407123,,
2219600000702,"Dolane Kokol","",46.364335432374,15.9994975683229,,
2219600000602,"Dolane","",46.3582159994606,16.0001956627259,,
2219600000502,"Cirkulane K","",46.3493588147811,16.0027605857319,,
2219600000302,"Brezovec 40","",46.3450721105903,16.0173839505967,,
2209600002801,"Spuhlja","",46.4066467730041,15.9188017273653,,
2209600002902,"Spuhlja G","",46.4124448053367,15.9068430270181,,
2209600001701,"Budina","",46.4131636098248,15.8954434803944,,
2209600001902,"Ormoška","",46.4176917673546,15.8785840131659,,
2209600001502,"Breg","",46.4162299822556,15.8544270760421,,
2215900000602,"Spodnja Hajdina","",46.4136226979151,15.8403404754589,,
2215900000803,"Zgornja Hajdina G","",46.412851210528,15.8249878095561,,
2204500000401,"Kidričevo","",46.4033604581982,15.7974813955115,,
2204500000601,"Kidričevo Talum","",46.3969597455489,15.7985289175875,,
2214300000602,"Zavrč","",46.3901954454275,16.0500006134877,,
2214300000701,"Zavrč Grad","",46.3859344297428,16.0481460962823,,
2214300000801,"Zavrč Trgovina","",46.3786010840397,16.0546787403018,,
2214300000300,"Kojuhovje","",46.3627052693164,16.0480502683705,,
2214300000501,"Turški Vrh","",46.3584770147928,16.0459954354815,,
2204500000602,"Kidričevo Talum","",46.3961289951055,15.7989034058804,,
2215900000804,"Zgornja Hajdina G","",46.4127351451559,15.8258332245035,,
2215900000601,"Spodnja Hajdina","",46.4135536666116,15.840702221451,,
2209600001501,"Breg","",46.4165635860875,15.8577544385271,,
2209600001901,"Ormoška","",46.4169989842322,15.8803994456571,,
2209600001702,"Budina","",46.4136602498521,15.8927488344828,,
2209600002901,"Spuhlja G","",46.4122437741494,15.9076375120911,,
2209600002802,"Spuhlja","",46.4073340745906,15.9174233798164,,
2219600000201,"Brezovec","",46.3424198299848,16.0263518602593,,
2214300000401,"Pestike","",46.3516401421426,16.0469815412032,,
2214300000502,"Turški Vrh","",46.3583524630159,16.0460110681148,,
2214300000301,"Kojuhovje","",46.3627811454247,16.0481231965524,,
2214300000802,"Zavrč Trgovina","",46.3788286983938,16.0540416779404,,
2214300000702,"Zavrč Grad","",46.3864652302261,16.0481714535498,,
2214300000601,"Zavrč","",46.3901436974311,16.0500627670896,,
2221000000502,"Jurovski Dol Spodnji Gaster K","",46.6035519333819,15.7987066093818,,
2221000000302,"Jurovski Dol Kraner","",46.5972070158249,15.8104298034143,,
2205800000601,"Lenart v Slov. goricah Paluc","",46.591611462672,15.8143342167922,,
2206900001401,"Ptujska Gora 108","",46.355153660812,15.7423506742488,,
2206900001301,"Ptujska Gora","",46.3561733131234,15.7553414107767,,
2206900001201,"Podlože K","",46.3608466361322,15.7597590003692,,
2204500000903,"Lovrenc na Dravskem polju","",46.374087790274,15.7796836651638,,
2204500000101,"Apače","",46.373278660906,15.8004198804531,,
2204500000202,"Apače na Dravskem polju K","",46.3866991391735,15.7986254655132,,
2204500000201,"Apače na Dravskem polju K","",46.3870166080145,15.7984897270347,,
2204500000902,"Lovrenc na Dravskem polju","",46.3741400299701,15.7792791917567,,
2206900001202,"Podlože K","",46.3612656366982,15.760188509706,,
2206900001302,"Ptujska Gora","",46.3563320906039,15.757038292496,,
2206900001402,"Ptujska Gora 108","",46.3553047344702,15.7430335592069,,
2208700002701,"Mihovci pri Vel. Nedelji","",46.4148682733017,16.1135155217763,,
2208700004402,"Velika Nedelja Trgovina","",46.4192238600215,16.1092030804457,,
2208700003701,"Senešci","",46.4257689821937,16.089604276049,,
2208700003801,"Sodinci","",46.4295081993095,16.0827077222672,,
2202800000801,"Osluševci","",46.4151398535473,16.0382630626225,,
2202800000102,"Cunkovci","",46.4175569559147,15.9762874613279,,
2216800001002,"Strelci","",46.4180620772582,15.9681512338007,,
2216800000602,"Prvenci","",46.4177735086908,15.9551407531219,,
2216800000102,"Borovci","",46.4179112283061,15.9418772816145,,
2216800000101,"Borovci","",46.4177554568889,15.9428763729946,,
2216800000601,"Prvenci","",46.41771949116,15.9559230440238,,
2216800001001,"Strelci","",46.417876452806,15.9688432916719,,
2202800000802,"Osluševci","",46.4150521353757,16.0383520946653,,
2213500002101,"Velika Varnica","",46.303087901177,15.9437751432777,,
2213500000902,"Mala Varnica","",46.3111623791009,15.9398493888807,,
2213500001002,"Mala Varnica 1","",46.3213286971518,15.9416702379348,,
2213500002501,"Zgornji Leskovec","",46.3278933333891,15.9355413939616,,
2213500001802,"Spodnji Leskovec","",46.339089568306,15.9443294014449,,
2213500001601,"Soviče","",46.3476021209034,15.9453216184111,,
2213500001702,"Soviče 1","",46.3539080982822,15.9445997605192,,
2213500002301,"Vareja Varejski hrib","",46.3658753385297,15.9302513883825,,
2213500002201,"Vareja","",46.3680559474076,15.9143523116196,,
2213500001500,"Sela K","",46.3757555236562,15.8311896813942,,
2213500002202,"Vareja","",46.3680110787908,15.9142699436332,,
2213500002302,"Vareja Varejski hrib","",46.3657688105577,15.930195912434,,
2213500001701,"Soviče 1","",46.3537450555466,15.9445938776454,,
2215900001001,"Gerečja vas GD","",46.4290013927049,15.8070662050606,,
2215900000302,"Hajdoše Žerak","",46.4365234923025,15.8144264189886,,
2215900000201,"Hajdoše","",46.4290917116633,15.8255225760169,,
2215900000401,"Skorba","",46.4211834707262,15.8318536059348,,
2215900000702,"Spodnja Hajdina Š","",46.4155857794111,15.8349686787655,,
2209600006000,"Krčevina pri Vurberk mostu","",46.4791683317967,15.8213707143199,,
2209600003901,"Grajenščak kapela","",46.4870994988575,15.8257508017223,,
2209600003802,"Grajenščak 45","",46.4832390092305,15.8334084219668,,
2209600003702,"Grajenščak","",46.4711878082528,15.8429617232116,,
2209600000602,"Mestni Vrh K","",46.4655446578133,15.8476516887023,,
2209600006101,"Krčevina pri Vurberku","",46.4711769352355,15.8291402975397,,
2209600003601,"Grajena","",46.4583022829047,15.8405169116995,,
2209600008502,"Štuki","",46.4448134909262,15.8483736404809,,
2215900000701,"Spodnja Hajdina Š","",46.4159921006079,15.8352885817447,,
2215900000402,"Skorba","",46.4213730226999,15.8319141589613,,
2215900000202,"Hajdoše","",46.4302703451451,15.8245200163953,,
2215900000300,"Hajdoše Žerak","",46.4369199854646,15.8139187119931,,
2215900001000,"Gerečja vas GD","",46.4290149979992,15.8069483861994,,
2215900000902,"Gerečja vas","",46.4240371849058,15.8106338933088,,
2204500000702,"Kungota pri Ptuju","",46.4245747267548,15.7853468980786,,
2204500000802,"Kungota pri Ptuju Cerkev","",46.4233809519828,15.7885627412209,,
2204500000502,"Kidričevo Š","",46.4072720816176,15.7929339353726,,
2204500000501,"Kidričevo Š","",46.4072747032341,15.7930971083249,,
2204500000801,"Kungota pri Ptuju Cerkev","",46.4232008152936,15.7888017403609,,
2215900000903,"Gerečja vas","",46.4240416232512,15.8107570369513,,
2202400000101,"Bratislavci Hojnik","",46.4720832788507,16.0186079682817,,
2202400000801,"Polenšak","",46.4714599156533,16.0001760248368,,
2209600000800,"Pacinje","",46.4504940283459,15.9353799037495,,
2201800001700,"Zgornji Velovlek","",46.4726060252844,15.9116317466218,,
2209600002702,"Spodnji Velovlek","",46.4644194037479,15.9200200150208,,
2209600000201,"Kicar K","",46.4523825942705,15.9201047084055,,
2209600001202,"Podvinci Velovlek K","",46.4457600087949,15.9188515040021,,
2202400000802,"Polenšak","",46.4714521405803,16.0000358995714,,
2202400000102,"Bratislavci Hojnik","",46.4720277240158,16.0186091561804,,
2202400000202,"Bratislavci Kovač","",46.4711175387429,16.0242429191939,,
2220500001002,"Savci 70","",46.4736104337731,16.045619243127,,
2220500000902,"Savci 53","",46.4803938888244,16.0629802452539,,
2219600000801,"Florjan pri Medribniku","",46.3228145939738,16.0196980341143,,
2219600000902,"Medribnik","",46.3270600192181,16.0071799648921,,
2219600001002,"Medribnik","",46.3347477280464,16.0024045591883,,
2219600001102,"Pristava","",46.326239892729,15.9896760664493,,
2219600001001,"Medribnik","",46.334576982676,16.0024312803289,,
2219600000901,"Medribnik","",46.3268850900472,16.0072109511048,,
2219600001301,"Pristava K","",46.3351120271919,15.9806325582286,,
2213500001602,"Soviče","",46.3476161865607,15.9452312821548,,
2213500001801,"Spodnji Leskovec","",46.3389763950966,15.9441423486369,,
2213500002502,"Zgornji Leskovec","",46.328754863472,15.9358854638297,,
2213500001001,"Mala Varnica 1","",46.3210648271916,15.9414633318508,,
2213500000901,"Mala Varnica","",46.3110951426136,15.9397165150782,,
2213500002102,"Velika Varnica","",46.3030311726503,15.9437065393765,,
2209600003701,"Grajenščak","",46.4712849828551,15.8429483737996,,
2209600003801,"Grajenščak 45","",46.4833135773196,15.8333858522052,,
2209600003902,"Grajenščak kapela","",46.487183341555,15.825751935844,,
2220500000901,"Savci 53","",46.4804422778419,16.0629188022141,,
2220500001001,"Savci 70","",46.4735554981694,16.045839606458,,
2202400000201,"Bratislavci Kovač","",46.4711409247167,16.0243831100091,,
2215300000302,"Cerkvenjak","",46.5676280356662,15.9434558550655,,
2215300000502,"Grabonoški Vrh","",46.5661448632012,15.9631919634996,,
2211600001701,"Župetinci Andrenci K","",46.5569006546626,15.9662878617964,,
2215300000602,"Smolinci Hanžekovci","",46.5500450909136,15.9748390901912,,
2218200000700,"Slavšina 37","",46.5446006498826,15.9827877602427,,
2201800000902,"Janežovski Vrh","",46.4826575316031,15.8791807507238,,
2201800000803,"Janežovci","",46.4706023408832,15.8822668241138,,
2201800000802,"Janežovci","",46.4699650270367,15.8827022268732,,
2201800001301,"Placar KZ","",46.4617757613254,15.8869010499135,,
2209600000301,"Kicar Nova vas K","",46.4534606836245,15.8926824311131,,
2209600001802,"Nova vas","",46.4431003484842,15.8894966925211,,
2209600002301,"Rogoznica Zadruga","",46.4328534210292,15.8906488523448,,
2201800001402,"Svetinci","",46.4982700105955,15.9037497830757,,
2201800000704,"Gomilci","",46.4915170702116,15.8897055390876,,
2201800001501,"Zasadi pri Desterniku 15","",46.4950812730048,15.8843832554427,,
2201800001602,"Zasadi 3","",46.4979148252404,15.8750750682987,,
2209600001801,"Nova vas","",46.4434667744674,15.8896139989284,,
2209600000302,"Kicar Nova vas K","",46.4530184465683,15.892833554699,,
2201800001302,"Placar KZ","",46.4616401288431,15.8871610756149,,
2201800000801,"Janežovci","",46.4707031955014,15.8833065014321,,
2201800000901,"Janežovski Vrh","",46.4828425747034,15.8793807445889,,
2201800001601,"Zasadi 3","",46.4978554371076,15.8749588314862,,
2201800001502,"Zasadi pri Desterniku 15","",46.494980630083,15.8843587883555,,
2201800000703,"Gomilci","",46.4915880397066,15.8893457249734,,
2201800001401,"Svetinci","",46.4982063146276,15.9038026620259,,
2209600002302,"Rogoznica Zadruga","",46.4330811548625,15.8907331071907,,
2218200000601,"Slavšina 26","",46.5390646043088,15.9788333915094,,
2215300000601,"Smolinci Hanžekovci","",46.5500840316138,15.9747923062623,,
2211600001702,"Župetinci Andrenci K","",46.5569213958482,15.9663468232673,,
2215300000500,"Grabonoški Vrh","",46.5663670657267,15.9634686875971,,
2215300000301,"Cerkvenjak","",46.5675736347175,15.9432049630332,,
2204500001202,"Pongrce","",46.3997384669085,15.7074359876264,,
2204500001300,"Spodnje Jablane","",46.3954183684944,15.7197949156574,,
2204500001601,"Zgornje Jablane","",46.3982390164734,15.7133995580403,,
2204500000302,"Cirkovce","",46.3941766693391,15.7283821163862,,
2204500001001,"Mihovce","",46.3852797714906,15.7356815850598,,
2204500001102,"Pleterje","",46.3812541327245,15.747535279538,,
2204500001701,"Župečja vas","",46.376277402427,15.7661026865552,,
2204500000900,"Lovrenc na Dravskem polju","",46.3741771036849,15.7796256532907,,
2211300005101,"Spodnja Polskava","",46.4139473243946,15.636521301366,,
2204500001702,"Župečja vas","",46.376331632238,15.7660428094712,,
2204500001101,"Pleterje","",46.3812909162739,15.7475552981493,,
2204500001002,"Mihovce","",46.3853341860797,15.735691740349,,
2204500000301,"Cirkovce","",46.3942293652651,15.7284094142189,,
2204500001302,"Spodnje Jablane","",46.3953119472923,15.719892230428,,
2204500001201,"Pongrce","",46.3997965123064,15.7071334339633,,
2204500001502,"Šikole","",46.4023332692729,15.6996094144141,,
2204500001802,"Spodnji Gaj pri Pragerskem","",46.397763403893,15.6750485893509,,
2211300002903,"Pragersko Marof","",46.399838087231,15.6419752936763,,
2211300005201,"Spodnja Polskava 83","",46.4078324442918,15.6382559679923,,
2202400000901,"Polenšak G","",46.4676916107794,16.0036806148555,,
2202400000701,"Polenci Kapela","",46.4660586876391,16.0214157896518,,
2202400000600,"Lasigovci 19","",46.4530998093903,16.0216669710671,,
2202400001001,"Prerad K","",46.4505529376249,16.015207991929,,
2202400000301,"Brezovci K","",46.4466224154517,16.0054580335796,,
2202400001101,"Slomi K","",46.4441662475892,15.9932059766587,,
2202400001201,"Žamenci GD","",46.4402826977926,15.9814305391824,,
2204200001702,"Žamenci K","",46.4411944254397,15.9632047747662,,
2202400000402,"Dornava","",46.4353960925798,15.955533940088,,
2202400000501,"Dornava Dom","",46.4350840862162,15.9484377901253,,
2209600002201,"Rogoznica novo Pokopališče","",46.4239264594094,15.9038796580858,,
2209600006100,"Krčevina pri Vurberku","",46.4712593159564,15.8291197998677,,
2209600006302,"Krčevina Toplak","",46.4711730057849,15.8240270466495,,
2209600005702,"Krčevina Damjak","",46.4712737084723,15.8169377669735,,
2209600005902,"Krčevina kapela","",46.4749205350289,15.8136664642751,,
2209600005202,"Krčevina 37","",46.4719276678384,15.8125560537323,,
2209600005802,"Krčevina EKO","",46.4655982143119,15.8137052453073,,
2209600005302,"Krčevina 41","",46.4639157590539,15.8162820248126,,
2209600006202,"Krčevina Sužnik","",46.4596138302203,15.8221006504656,,
2209600006402,"Krčevina pri Vurbergu 90","",46.4570327427596,15.8298707932675,,
2209600007302,"Ptuj Maistrova ulica","",46.4340486379243,15.8576327952161,,
2209600006401,"Krčevina pri Vurbergu 90","",46.4570851144195,15.8298321408966,,
2209600006201,"Krčevina Sužnik","",46.4597150771627,15.8220334294487,,
2209600005301,"Krčevina 41","",46.4639527691193,15.8163280154302,,
2209600005801,"Krčevina EKO","",46.465635380474,15.8137293638627,,
2209600005201,"Krčevina 37","",46.4719565457133,15.8126198980958,,
2209600005901,"Krčevina kapela","",46.4748816151223,15.8135851468309,,
2209600005701,"Krčevina Damjak","",46.4712129033185,15.8169358186128,,
2209600006301,"Krčevina Toplak","",46.4711254281644,15.8241125339794,,
2209600007001,"Orešje 206","",46.4337735481501,15.8460537054165,,
2209600004701,"Krčevina 123","",46.4527151851333,15.8250575407009,,
2209600004802,"Krčevina 134","",46.4572326011289,15.8182755776241,,
2209600004901,"Krčevina 155","",46.4745365943183,15.8011772299439,,
2209600005601,"Krčevina Bezjak","",46.4758620345627,15.8001040074199,,
2209600005001,"Krčevina 163","",46.4778544856244,15.7972851966399,,
2209600003101,"Vurberk Polje","",46.4799680757677,15.7878347383897,,
2202600001501,"Vurberk K","",46.4850951785434,15.7870138362661,,
2202600000601,"Dvorjane 46","",46.4919934949993,15.7785273682473,,
2218200000801,"Slavšina K","",46.5337940141668,15.9749165214436,,
2218200000501,"Novinci 33","",46.5322340075436,15.9669845270877,,
2218200000401,"Novinci 12","",46.5263504510513,15.949657014924,,
2218200000901,"Vitomarci Brlak K","",46.5210352231653,15.9408345339634,,
2218200001001,"Vitomarci Rola","",46.525946122721,15.9336367109251,,
2218200000202,"Drbetinci KZ","",46.5303887751373,15.9314084815906,,
2218200000101,"Drbetinci 9","",46.5334645895563,15.9258040350874,,
2218500000402,"Trnovska vas Most","",46.5231616655654,15.8979393606461,,
2218500000401,"Trnovska vas Most","",46.5232967484412,15.8980633995475,,
2218200000102,"Drbetinci 9","",46.5334032175882,15.9258542339411,,
2218200000201,"Drbetinci KZ","",46.5304603383346,15.9312922423167,,
2218200001002,"Vitomarci Rola","",46.5259106441637,15.9335741901161,,
2218200000900,"Vitomarci Brlak K","",46.5210089650456,15.9409767026833,,
2218200000402,"Novinci 12","",46.5263007859111,15.9497035269201,,
2218200000502,"Novinci 33","",46.5321629055616,15.9669653270736,,
2218200000802,"Slavšina K","",46.5336925136562,15.9748211547035,,
2204500001801,"Spodnji Gaj pri Pragerskem","",46.3974123296878,15.6743154030959,,
2204500001503,"Šikole","",46.4022868796334,15.699553780734,,
2202400000702,"Polenci Kapela","",46.4661089709268,16.0213801909724,,
2202600000302,"Ciglence Kogolšek","",46.4947785319883,15.7852257410767,,
2202600000902,"Marof pri Vurberku","",46.4892133763575,15.7971879548416,,
2209600005501,"Krčevina 8","",46.4889279985164,15.8117673981029,,
2209600005102,"Krčevina 3","",46.492814589099,15.8131098521839,,
2209600005401,"Krčevina 5e","",46.4967531910123,15.8105209932987,,
2209600005101,"Krčevina 3","",46.4927473931974,15.8132099417728,,
2209600005502,"Krčevina 8","",46.4889195847259,15.8117231157975,,
2209600006002,"Krčevina pri Vurberk mostu","",46.4791678351048,15.8213268161301,,
2209600004702,"Krčevina 123","",46.4526221744645,15.8250550995752,,
2209600007002,"Orešje 206","",46.4335980680999,15.8464006487718,,
2209600003100,"Vurberk Polje","",46.479874217753,15.7877824375734,,
2209600005002,"Krčevina 163","",46.4777970158844,15.7972563604098,,
2209600005602,"Krčevina Bezjak","",46.4758187146154,15.8000717295867,,
2209600004902,"Krčevina 155","",46.4744414487468,15.8011712807609,,
2209600004801,"Krčevina 134","",46.4571182259357,15.8183420858935,,
2209600008102,"Ptuj Župančičeva 10","",46.4280418168374,15.8753365671277,,
2209600007200,"Podvinci Rašlova kapela","",46.432230687644,15.9078263691255,,
2209600007102,"Podvinci 70","",46.4384182333432,15.9198581700188,,
2209600000200,"Kicar K","",46.4525117035598,15.9202371048979,,
2209600004401,"Kicar 66c","",46.4476923212713,15.9160088973235,,
2209600004301,"Kicar 48b","",46.4501894651746,15.9097849553777,,
2209600004001,"Kicar 1","",46.4481282193383,15.9045911530255,,
2209600004101,"Kicar 112b","",46.455688187005,15.9041318247019,,
2209600004202,"Kicar 118b","",46.4582366145698,15.9011525337044,,
2209600004601,"Kicar Gernice","",46.4556848167977,15.8982152553063,,
2209600007402,"Ptuj Nova vas 89","",46.4375194039947,15.8898153999084,,
2209600007501,"Ptuj Nova vas cerkev","",46.4338063410453,15.8902351953904,,
2209600007801,"Ptuj Svržnjakova 4","",46.4321837976232,15.8913052776547,,
2209600008801,"Žabjak 2","",46.4348993391436,15.8958465605901,,
2209600008701,"Žabjak 18","",46.4404221980768,15.8977934079023,,
2209600004502,"Kicar 7f","",46.443502764454,15.9036480294668,,
2209600008101,"Ptuj Župančičeva 10","",46.4281525585589,15.8758920974791,,
2209600006501,"Mestni Vrh 17 K","",46.4416944354512,15.8732226657873,,
2209600006603,"Mestni Vrh 25","",46.4479399979269,15.8744192673803,,
2209600006702,"Mestni Vrh 56","",46.4383157168072,15.8682913014831,,
2209600006902,"Mestni Vrh ribnik K","",46.4345162388047,15.8666455326712,,
2209600007601,"Ptuj Pivkova ulica","",46.4308490686499,15.8636157846736,,
2209600008601,"Štuki 21a","",46.4373494726954,15.8596244690445,,
2209600006802,"Mestni Vrh Črešnik","",46.4425847046838,15.856556957072,,
2201800000302,"Dolič","",46.4819384466236,15.8897109582071,,
2201800001901,"Dolič Pri Furmanu","",46.4814986201526,15.8901972230599,,
2201800000301,"Dolič","",46.4824398758374,15.8896862109198,,
2201800000701,"Gomilci","",46.4910366937679,15.8900158731974,,
2209600004302,"Kicar 48b","",46.4500653979142,15.9099096774818,,
2209600004000,"Kicar 1","",46.4481087172061,15.9047031587223,,
2209600008602,"Štuki 21a","",46.4373660812559,15.8595571890512,,
2209600007602,"Ptuj Pivkova ulica","",46.4308056609538,15.8635735930619,,
2209600007901,"Ptuj Ul. 5 Prekomorske 13","",46.4294194798052,15.8700547379724,,
2209600008301,"Rabeljčja vas","",46.4372891956006,15.8734317909763,,
2209600007201,"Podvinci Rašlova kapela","",46.4323251099054,15.9078661848453,,
2209600001400,"Bolnišnica","",46.4259234367246,15.878626125119,,
2208700004901,"Vuzmetinci Govedič","",46.459341978504,16.2348969138212,,
2208700004801,"Vuzmetinci","",46.4645305113038,16.2269007844988,,
2208700001202,"Kajžar","",46.4638892554656,16.219003897859,,
2208700002901,"Miklavž pri Ormožu","",46.4579939619051,16.214036055321,,
2208700001401,"Krčevina pri Ormožu K","",46.4424737881931,16.2078899572608,,
2208700001501,"Krčevina pri Ormožu Polak","",46.4360047000892,16.197215031779,,
2209600008901,"Žnidaričevo nabrežje Mladika","",46.4169396340333,15.8727976153183,,
2209600007502,"Ptuj Nova vas cerkev","",46.4337909007359,15.8902539433099,,
2209600007902,"Ptuj Ul. 5 Prekomorske 13","",46.4295197632075,15.8700590609433,,
2209600002400,"SŠC","",46.4264392917396,15.8705093039502,,
2209600008002,"Ptuj Volkmerjeva c.1","",46.4248380179902,15.8727234105676,,
2209600003302,"Belšakova Dom krajanov","",46.4170925933941,15.8906610292299,,
2209600003202,"Belšakova Bar Venera","",46.4173456748184,15.8940044927525,,
2209600003401,"Brstje","",46.4197731400275,15.9004482930354,,
2209600003502,"Dornavska cesta Lovec","",46.4242186752883,15.8979872152115,,
2209600003402,"Brstje","",46.4197731903649,15.9003730997197,,
2209600003201,"Belšakova Bar Venera","",46.4174161211634,15.8940622287259,,
2209600003301,"Belšakova Dom krajanov","",46.4171413054098,15.8904242802503,,
2209600008401,"Spuhlja 133a","",46.4072686192188,15.9028467746874,,
2208700003301,"Pavlovci K","",46.4241542213255,16.1780486179565,,
2208700003202,"Pavlovci 8","",46.416356293874,16.1706422579624,,
2208700003102,"Ormož Tovarna","",46.4096065730239,16.1608635201454,,
2208700002902,"Miklavž pri Ormožu","",46.4574176183876,16.2142914108885,,
2208700001201,"Kajžar","",46.4638075764951,16.2194055296474,,
2208700004802,"Vuzmetinci","",46.4646432435801,16.2297978718978,,
2208700000602,"Gomila pri Kogu K","",46.4763724889806,16.2343844600271,,
2208700000502,"Gomila pri Kogu Bajzek","",46.4749474500278,16.2398921070646,,
2208700000702,"Gomila pri Kogu Pukšič","",46.4708027310208,16.2478098986006,,
2208700004902,"Vuzmetinci Govedič","",46.4592907825612,16.2348650565775,,
2208700001602,"Lačaves","",46.4509255968537,16.2417382231848,,
2208700004600,"Vitan K","",46.4395926711173,16.2428711254647,,
2208700001102,"Jastrebci","",46.4436888635427,16.2523888796127,,
2208700001302,"Kog","",46.4550967507653,16.2526256900868,,
2208700000701,"Gomila pri Kogu Pukšič","",46.4708529468111,16.2477686414709,,
2208700000501,"Gomila pri Kogu Bajzek","",46.4751303949122,16.2396322375411,,
2208700000601,"Gomila pri Kogu K","",46.4764553007608,16.2345332220367,,
2208700003101,"Ormož Tovarna","",46.4100504793465,16.1612591799188,,
2208700003201,"Pavlovci 8","",46.4160221418751,16.1705518370102,,
2208700003302,"Pavlovci K","",46.4244333027835,16.1789124362848,,
2208700001502,"Krčevina pri Ormožu Polak","",46.4359117339073,16.1972781890952,,
2208700001402,"Krčevina pri Ormožu K","",46.4424128565879,16.2079309743036,,
2209600008001,"Ptuj Volkmerjeva c.1","",46.4249836774698,15.8726881268605,,
2208700001301,"Kog","",46.4548636376859,16.2523462030956,,
2208700001101,"Jastrebci","",46.4437160524356,16.2523050591061,,
2208700001601,"Lačaves","",46.4509030946388,16.2418822064239,,
2208700004800,"Vuzmetinci","",46.4644337730242,16.2294248665254,,
2206900000101,"Bolečka vas","",46.3469513467744,15.8022578545398,,
2206900000201,"Doklece","",46.3449342812813,15.7822216282128,,
2206900001701,"Slape","",46.3421721837377,15.7663496320838,,
2206900001902,"Stogovci","",46.3387789077477,15.7531133268739,,
2209600001601,"Breg Trgovina","",46.4139871925061,15.8644768903571,,
2209600002501,"Transservis","",46.4066181159998,15.865438165848,,
2209600002601,"Turnišče","",46.398968308056,15.8611046045363,,
2215900000102,"Draženci","",46.3887792342873,15.8502075170114,,
2213500000601,"Draženci Farma","",46.3801097488993,15.8373600683106,,
2208700003601,"Pušenci K","",46.4098319372396,16.1829386625581,,
2208700000801,"Hum pri Ormožu","",46.4079615218362,16.1939379389299,,
2208700002601,"Loperšice","",46.4048037671881,16.2022539232838,,
2220200000402,"Obrež GD","",46.3981596333856,16.2342662967095,,
2220200000301,"Obrež Bobot","",46.3984238207702,16.2502471552006,,
2220200000201,"Grabe","",46.397258790831,16.2585356817387,,
2220200000502,"Središče ob Dravi","",46.3963984123018,16.270878960418,,
2220200000101,"Godeninci","",46.4212268395823,16.2605547694214,,
2208700004702,"Vodranci","",46.4317866069952,16.2501831788277,,
2208700004601,"Vitan K","",46.4392388916388,16.243209122001,,
2206300003002,"Podgradje","",46.5073354910289,16.2110121298362,,
2206300003202,"Slamnjak","",46.5027925263948,16.2096894667448,,
2206300002501,"Gresovščak","",46.499325956154,16.2021861806774,,
2206300003802,"Železne Dveri","",46.4969761208819,16.1941655159546,,
2206300001300,"Radomerje","",46.5038962160608,16.1867453885752,,
2206300003102,"Radomerje GD","",46.4975246866999,16.1812059477631,,
2206300003900,"Železne Dveri K","",46.4874327525447,16.181582464665,,
2206300002601,"Jeruzalem","",46.4761438024418,16.1873691550414,,
2206300003502,"Vinski hram Jeruzalem","",46.4730909232611,16.1886402831228,,
2208700005201,"Vinski Vrh kapela","",46.4579241298515,16.2035314299874,,
2208700005301,"Vinski Vrh križ","",46.4458692623277,16.2032654734848,,
2208700001400,"Krčevina pri Ormožu K","",46.4424501928914,16.2079649882565,,
2208700002002,"Spodnja Lešnica pri Ormožu","",46.4257372570931,16.1382300907318,,
2208700001902,"Lešnica K","",46.4362174132363,16.1341265509405,,
2208700002102,"Zgornja Lešnica pri Ormožu","",46.4431923751645,16.1159532401569,,
2208700003902,"Spodnji Ključarovci Kapela","",46.447124095679,16.1107219450449,,
2208700004001,"Spodnji Ključarovci Trgovina","",46.451942798719,16.1035394797202,,
2220500001000,"Savci 70","",46.4730956560735,16.0462181972825,,
2206300003701,"Zgornji Kamenščak Križ","",46.5130854929542,16.129450888343,,
2206300001902,"Zgornji Kamenščak K Ljutomer","",46.5142431727538,16.1342742365064,,
2206300000202,"Cezanjevci K","",46.5146228702895,16.1564026804881,,
2206300001601,"Spodnji Kamenščak Kapela","",46.5155584072818,16.1727592531616,,
2206300001602,"Spodnji Kamenščak Kapela","",46.5155448556472,16.1722936635384,,
2206300000201,"Cezanjevci K","",46.5147251240022,16.1560699320292,,
2206300001901,"Zgornji Kamenščak K Ljutomer","",46.5144310360059,16.1341920607323,,
2206300003702,"Zgornji Kamenščak Križ","",46.5131198309035,16.129353469464,,
2206300003602,"Zgornji Kamenščak 23","",46.5086824723508,16.1271142095984,,
2206300003302,"Stara Cesta 84","",46.503572132612,16.1191435260875,,
2206300003400,"Stara Cesta Žerovinci K","",46.5012784941667,16.1086461261502,,
2220200000401,"Obrež GD","",46.3984782802368,16.2323491547955,,
2208700002602,"Loperšice","",46.4042656952777,16.2042823358663,,
2208700000802,"Hum pri Ormožu","",46.4083165602156,16.1927687215674,,
2208700003602,"Pušenci K","",46.4098765715945,16.1817455895248,,
2208700004602,"Vitan K","",46.4395002943625,16.2428854820209,,
2208700004701,"Vodranci","",46.4317678211227,16.2501077968005,,
2220200000102,"Godeninci","",46.4212420066787,16.2603553321084,,
2220200000501,"Središče ob Dravi","",46.3963234309428,16.2706862369178,,
2220200000202,"Grabe","",46.397638796826,16.25774920349,,
2220200000302,"Obrež Bobot","",46.3988462636198,16.2481460851736,,
2211300006701,"Zgornja Ložnica","",46.3892114232067,15.5141917664443,,
2211300005502,"Srednje Visole","",46.4029741030353,15.5276420111463,,
2211300007301,"Zgornje Visole","",46.4068761677555,15.5225419463985,,
2211300005902,"Turiška vas na Pohorju","",46.409798031218,15.5079343818767,,
2211300006101,"Veliko Tinje","",46.4152955640842,15.5031207964508,,
2211300002402,"Malo Tinje","",46.4141438354934,15.4919933786661,,
2211300006102,"Veliko Tinje","",46.4151578618982,15.5031580585294,,
2211300005901,"Turiška vas na Pohorju","",46.4097167187281,15.5079200547089,,
2211300007302,"Zgornje Visole","",46.4068064742717,15.5225554626643,,
2211300005501,"Srednje Visole","",46.4029259979407,15.527579276563,,
2211300005401,"Spodnje Visole","",46.3996547804501,15.5355681367387,,
2206300003501,"Vinski hram Jeruzalem","",46.4724875018234,16.188639937532,,
2206300003101,"Radomerje GD","",46.4975558940001,16.1813031592002,,
2206300001302,"Radomerje","",46.5036408680234,16.1877095440012,,
2206300002502,"Gresovščak","",46.4992466422573,16.2021224214865,,
2206300003001,"Podgradje","",46.5073086104045,16.2111294584647,,
2206300003401,"Stara Cesta Žerovinci K","",46.5012651712189,16.1087691270521,,
2206300003300,"Stara Cesta 84","",46.5035383803195,16.1189238128799,,
2206300003601,"Zgornji Kamenščak 23","",46.5086172037355,16.1271367097508,,
2216900000502,"Miklavž na Dravskem polju 49","",46.5080823841307,15.6953503317132,,
2216900000602,"Miklavž na Dravskem polju 73","",46.5048512211024,15.6994470092788,,
2216900000402,"Miklavž na Dravskem polju","",46.5024183867433,15.7024342525027,,
2216900000701,"Miklavž na Dravskem polju Grm","",46.4964840993341,15.7129934647363,,
2211500000401,"Loka 52","",46.4890032402781,15.7279791358401,,
2211500000302,"Loka","",46.4833812655762,15.7371723053376,,
2211500000901,"Rošnja","",46.4781750315773,15.7451330917683,,
2211500001002,"Starše","",46.4668656648513,15.7656702224909,,
2211500001302,"Zlatoličje Krepfl","",46.4546694661174,15.7828174415602,,
2211500001201,"Zlatoličje","",46.4509441354971,15.7894355708822,,
2215900000502,"Slovenja vas","",46.4404184957814,15.8062039789243,,
2207000022402,"Vrbanska cesta","",46.5660411409784,15.6331692278787,,
2207000005501,"Gosposvetska -Turnerjeva","",46.5630023097442,15.6301914178314,,
2207000020801,"Tretja gimnazija","",46.560650572831,15.6403447064987,,
2207000019901,"Tabor","",46.5534949664228,15.6440619558493,,
2207000015502,"Pokopališče Dobrava "K"","",46.5174526861922,15.6845029339729,,
2216900000902,"Miklavž na Dravskem polju Vauh","",46.5114238096073,15.6913598551443,,
2206300001301,"Radomerje","",46.5039721059935,16.1866454777322,,
2208700005002,"Žerovinci","",46.48414320804,16.1522950292905,,
2208700005102,"Žerovinci GD","",46.4730993417255,16.1551618348329,,
2208700000902,"Ivanjkovci","",46.4629609901915,16.1566349256567,,
2216800000501,"Novi Jork","",46.3985557752713,15.9526118617583,,
2216800000701,"Sobetinci","",46.4031198067517,15.9715281685394,,
2202800001102,"Zagojiči","",46.4032452934618,15.9801687798059,,
2215900000101,"Draženci","",46.3888234025095,15.8503936311768,,
2209600002602,"Turnišče","",46.3989302727571,15.8611757469566,,
2209600002502,"Transservis","",46.4070561263927,15.865757844131,,
2209600001602,"Breg Trgovina","",46.4142958535965,15.864541192014,,
2211300005301,"Spodnje Prebukovje","",46.4228050854363,15.5635153562492,,
2211300007202,"Zgornje Prebukovje","",46.431181970727,15.5470402630877,,
2211300005601,"Šmartno na Pohorju","",46.4455375355675,15.5376262826455,,
2211300004402,"Smrečno","",46.4478405604116,15.506256584496,,
2211300004401,"Smrečno","",46.4477680523707,15.5062613246949,,
2211300005602,"Šmartno na Pohorju","",46.4454668614057,15.5376837739795,,
2211300007201,"Zgornje Prebukovje","",46.4311850339327,15.5469555982336,,
2211300005302,"Spodnje Prebukovje","",46.422703124959,15.5635571673723,,
2211300000502,"Devina","",46.412430747855,15.5710458984106,,
2211300000601,"Devina 53","",46.401831444449,15.573346657609,,
2211300000602,"Devina 53","",46.4019135366474,15.5734292306566,,
2211300000501,"Devina","",46.4123611897665,15.5711010968686,,
2208700005101,"Žerovinci GD","",46.4725951433709,16.1550844180082,,
2208700005001,"Žerovinci","",46.4838312462673,16.1527495801583,,
2207000005901,"Greenwich","",46.5546878950256,15.6597599296587,,
2207000004602,"Europark","",46.5548223115225,15.6543239085331,,
2207000010801,"Magdalena","",46.5546434908071,15.6466840757393,,
2207000003801,"Dupleška - Jarčeva","",46.5322214265172,15.694932685052,,
2202800001101,"Zagojiči","",46.4032764319644,15.9801125839631,,
2216800000702,"Sobetinci","",46.4031971730206,15.9714712371553,,
2216800000502,"Novi Jork","",46.3986135934078,15.9526050779935,,
2213500000602,"Draženci Farma","",46.380099157496,15.8374556228214,,
2206900001200,"Podlože K","",46.3606521272824,15.7591402260756,,
2206900002401,"Podlože","",46.3606696153876,15.7354049283232,,
2206900002301,"Medvedce","",46.35955549569,15.7040779719648,,
2206900002500,"Sestrže","",46.3558317722007,15.6819140329084,,
2206900002302,"Medvedce","",46.3594575876026,15.7041986126851,,
2206900002402,"Podlože","",46.3606576122288,15.7351438222288,,
2204500000901,"Lovrenc na Dravskem polju","",46.374321439524,15.7800495688644,,
2211300006002,"Urh","",46.4237995016859,15.4955616848333,,
2211300003302,"Rep","",46.4255048179181,15.4921907456195,,
2211300001102,"Juršnik","",46.4264915893564,15.4862325736162,,
2211300002601,"Planina pod Šumikom","",46.4353673830794,15.4768695452625,,
2211300001101,"Juršnik","",46.4264662089812,15.4860758749083,,
2211300003301,"Rep","",46.4253993293909,15.4924657863538,,
2211300006001,"Urh","",46.423810807532,15.4954596924438,,
2207000001502,"Brezje  trgovina","",46.5362347895177,15.6889451627259,,
2207000003901,"Dupleška - Tezenska","",46.5412879727977,15.6833765183133,,
2207000002401,"Cesta XIV.divizije-samopostrežna","",46.5449100653438,15.6765005205037,,
2207000022201,"VeljkaVlahoviča-TUŠ","",46.5485889391226,15.6754687807103,,
2207000022101,"VeljkaVlahoviča-S31","",46.5512568211127,15.6767957910676,,
2207000002801,"Čufarjeva-Dom upokojencev","",46.5546296754781,15.6721146578439,,
2207000021501,"TVD Partizan-Pobreška","",46.5551782180089,15.6654526300127,,
2204500000200,"Apače na Dravskem polju K","",46.3861279514857,15.7985613036472,,
2204500001901,"Kidričevo farma","",46.3937414662436,15.810595967793,,
2215900001301,"Zgornja Hajdina 158","",46.398182181741,15.823835495877,,
2215900001202,"Zgornja Hajdina","",46.4068680790861,15.8410770024393,,
2215900001101,"Spodnja Hajdina trgovina","",46.408379969116,15.8459411255776,,
2215900001102,"Spodnja Hajdina trgovina","",46.4084636815521,15.8458195401251,,
2215900001201,"Zgornja Hajdina","",46.4069768045696,15.841110173521,,
2215900001302,"Zgornja Hajdina 158","",46.3988544029382,15.8249134600668,,
2206900002002,"Stoperce","",46.2899953297472,15.7175211766746,,
2206900000302,"Grdina","",46.2953560599343,15.7212949659633,,
2206900001502,"Razbank","",46.3071689387883,15.7173027399019,,
2206900001801,"Spodnja Sveča","",46.3261677987814,15.7211218158389,,
2206900001102,"Preša","",46.3296619999114,15.7255312993743,,
2206900000701,"Majšperk Breg","",46.3384180358934,15.7368774029933,,
2204500001903,"Kidričevo farma","",46.3935964659168,15.810074626668,,
2217100000601,"Malahorna","",46.3745735279468,15.435902633184,,
2211400000102,"Barbara","",46.3663480312171,15.4277526193526,,
2211400000201,"Bezina","",46.3553706469786,15.433304968291,,
2211400002001,"Slovenske Konjice","",46.3403628399045,15.4274282841439,,
2211400000202,"Bezina","",46.3552230213036,15.4335444903104,,
2211400000101,"Barbara","",46.3667924113813,15.4283269250946,,
2217100000602,"Malahorna","",46.3744511139426,15.4358562149163,,
2207000022401,"Vrbanska cesta","",46.5658893369086,15.6335661218567,,
2216900000501,"Miklavž na Dravskem polju 49","",46.5089225743417,15.6945054458554,,
2216900000901,"Miklavž na Dravskem polju Vauh","",46.5122471388809,15.6907163138152,,
2207000015501,"Pokopališče Dobrava "K"","",46.5185116848489,15.6838337542127,,
2207000020401,"Tovarna vozil","",46.5294952826074,15.6718401827918,,
2207000005502,"Gosposvetska -Turnerjeva","",46.5630450295779,15.6304092977908,,
2215900000301,"Hajdoše Žerak","",46.4373652935904,15.8133193620597,,
2215900000501,"Slovenja vas","",46.4401128678284,15.8072997406255,,
2211500001202,"Zlatoličje","",46.4513202933169,15.7892445592192,,
2211500001301,"Zlatoličje Krepfl","",46.4547861173556,15.7822969663388,,
2211500001001,"Starše","",46.4668398174832,15.7662239277789,,
2211500000902,"Rošnja","",46.4783572329239,15.7451847740677,,
2211500000402,"Loka 52","",46.4897613834831,15.7257527332705,,
2216900000702,"Miklavž na Dravskem polju Grm","",46.4969738258432,15.7123195613633,,
2216900000401,"Miklavž na Dravskem polju","",46.5024269365185,15.7026702933735,,
2211500000301,"Loka","",46.4829973655143,15.73861539942,,
2216900000601,"Miklavž na Dravskem polju 73","",46.5055930936045,15.6987974267038,,
2211300005802,"Trnovec pri Slovenski Bistrici","",46.3554107722131,15.6509085215083,,
2211300006402,"Vrhloga","",46.3639552891035,15.6316496919375,,
2207000007901,"Koroška - Poštna","",46.5576610426348,15.6437841502828,,
2208700003502,"Podgorci Bombek","",46.4291575646019,16.0565737945307,,
2208700003401,"Podgorci 60","",46.4326727984848,16.0492560205402,,
2208700000202,"Bresnica Trgovina","",46.4381023373044,16.0390803735397,,
2208700000101,"Bresnica K","",46.4427644007057,16.0309262565196,,
2202400000602,"Lasigovci 19","",46.4529014796874,16.0220334121706,,
2211300006700,"Zgornja Ložnica","",46.3891363215238,15.5142905866381,,
2211300000702,"Dobrava pri Slovenski Bistrici","",46.388425842008,15.5115705887715,,
2209600001002,"Podvinci","",46.4378880614343,15.9264897127821,,
2210200000101,"Begunje na Gorenjskem","",46.3750945658917,14.1987921890926,,
2210200000201,"Begunje na Gorenjskem Elan","",46.3717162365972,14.1946031159882,,
2210200003702,"Zapuže","",46.3653109600183,14.1915372178201,,
2210200002102,"Nova vas pri Lescah","",46.3595108193875,14.1882209277178,,
2210200002801,"Radovljica","",46.3434174737158,14.1728098889321,,
2210200002902,"Radovljica Isospan","",46.350133701052,14.1683414616701,,
2210200001302,"Lesce","",46.3573451305116,14.1635053815212,,
2210200001502,"Lesce ŽP","",46.3605788843244,14.1581879256327,,
2200300000702,"Unior","",46.3683242605734,14.1139929920597,,
2200300000101,"Bled","",46.371272193958,14.106962078527,,
2200300001701,"Rečica pri Bledu","",46.3755569054733,14.0928580343136,,
2200300001801,"Rečica pri Bledu LIP","",46.3784837973479,14.0876059358101,,
2220700000502,"Spodnje Gorje","",46.3829143883772,14.0818766761867,,
2220700000902,"Zgornje Gorje","",46.3803121916158,14.0663925823833,,
2220700000101,"Dolgo Brdo","",46.3799299075506,14.0622129158593,,
2220700000301,"Krnica","",46.3769761635403,14.0569311545343,,
2204100001601,"Jesenice bolnica","",46.4429921533338,14.0350530242459,,
2219200000701,"Rodine","",46.3823659680011,14.174872015843,,
2210200002601,"Poljče","",46.3753633974258,14.1912304266621,,
2204100001801,"Jesenice Integral","",46.4371979448073,14.048649044103,,
2204100002202,"Jesenice ŽP","",46.4364577914976,14.0550298449135,,
2204100001701,"Jesenice Gimnazija","",46.4356909919457,14.0595968361039,,
2204100001901,"Jesenice občina","",46.4320488457966,14.0627043281654,,
2204100002002,"Jesenice Senožeti","",46.4301714467404,14.0732927820284,,
2204100003503,"Slovenski Javornik","",46.4275920986587,14.0833801450315,,
2204100003601,"Slovenski Javornik Turist","",46.4265593367314,14.0887641454062,,
2204100004602,"Koroška Bela Acroni","",46.4258667232653,14.0934605059026,,
2204100004502,"Koroška Bela","",46.4251632987619,14.0972192748245,,
2204100004701,"Potoki","",46.4148118305008,14.1205225377775,,
2219200001102,"Žirovnica","",46.4027291447948,14.137515476088,,
2219200001001,"Zabreznica","",46.3973389855862,14.1471924470307,,
2219200000301,"Breznica","",46.3949884744996,14.1544292407275,,
2219200000401,"Doslovče","",46.3922318148527,14.1614407161757,,
2219200000802,"Smokuč","",46.3887097424526,14.1664303355859,,
2204100002101,"Jesenice ZD","",46.4396648812856,14.0443968468135,,
2219200000402,"Doslovče","",46.3922988468738,14.1614729497802,,
2219200000302,"Breznica","",46.3950674937662,14.1546157838702,,
2219200001002,"Zabreznica","",46.3974247949143,14.1472049822327,,
2219200001101,"Žirovnica","",46.4033192363533,14.1365186640657,,
2204100004702,"Potoki","",46.4150470245459,14.1197746058591,,
2204100004501,"Koroška Bela","",46.4253040425147,14.0970982212516,,
2204100004601,"Koroška Bela Acroni","",46.4259904154417,14.093458448771,,
2204100003602,"Slovenski Javornik Turist","",46.4267093302962,14.0886641345462,,
2204100003502,"Slovenski Javornik","",46.4280547708958,14.0815652945647,,
2210200002901,"Radovljica Isospan","",46.3499103023908,14.1681897360296,,
2210200002101,"Nova vas pri Lescah","",46.3594057967668,14.1889115109543,,
2210200003701,"Zapuže","",46.3653773171208,14.1917102096171,,
2210200000202,"Begunje na Gorenjskem Elan","",46.3714885996869,14.1943771408325,,
2220700000302,"Krnica","",46.3769905097622,14.0573398869272,,
2220700000102,"Dolgo Brdo","",46.3800218223894,14.0631397096092,,
2220700000901,"Zgornje Gorje","",46.3801124442339,14.0682394114637,,
2220700000501,"Spodnje Gorje","",46.3828471397729,14.0811019895067,,
2200300001802,"Rečica pri Bledu LIP","",46.378694304932,14.0873990053053,,
2200300001702,"Rečica pri Bledu","",46.3754817935509,14.0928266134026,,
2200300000701,"Unior","",46.3681614431086,14.1141079037684,,
2210200001501,"Lesce ŽP","",46.3607482885824,14.1579079849419,,
2210200001301,"Lesce","",46.357818880526,14.1626845705752,,
2204100001802,"Jesenice Integral","",46.4371379094886,14.0495883891153,,
2204100002102,"Jesenice ZD","",46.4398574280957,14.0442592367809,,
2204100001602,"Jesenice bolnica","",46.4428724512472,14.0356496890028,,
2204100001102,"Hrušica K","",46.4481059651369,14.0151464939685,,
2204100001001,"Hrušica Dobrčnik","",46.4487718052969,14.0115294968311,,
2204100000901,"Hrušica Belo Polje","",46.4513553848976,14.0023134247315,,
2204100002001,"Jesenice Senožeti","",46.4302983848696,14.0732863298397,,
2204100001902,"Jesenice občina","",46.4318893876408,14.0634325407845,,
2204100001702,"Jesenice Gimnazija","",46.4358872225346,14.0595377558854,,
2204100002201,"Jesenice ŽP","",46.4366653772514,14.0548345252674,,
2210200002602,"Poljče","",46.3754176244788,14.1915660158622,,
2219200000702,"Rodine","",46.3827805366509,14.1743984202001,,
2219200000801,"Smokuč","",46.3887037753759,14.166682977238,,
2206108010101,"Tivoli","",46.0604226645536,14.4972170238227,,
2206100000201,"Avtobusna postaja Ljubljana","",46.0578328494517,14.508785575367,,
2206108010102,"Tivoli","",46.0602301789877,14.4977637889558,,
2206118030104,"Remiza","",46.074293183063,14.4854820440677,,
2206108040102,"Trata","",46.0868774436562,14.4747810375962,,
2206108040402,"Šentvid","",46.0967808718784,14.4650468839174,,
2206108040702,"Medno","",46.1248824252041,14.4367401561151,,
2207108050102,"Medvoška a.p.","",46.1379117617996,14.4151788544956,,
2207100000701,"Medvode Na klancu","",46.1469630545027,14.4102497999903,,
2205200003701,"Kranj Labore","",46.232210985356,14.3528064512486,,
2205200006602,"Kranj ŽP","",46.2367076263222,14.3493825873646,,
2205200003301,"Globus","",46.2422039024101,14.3555104246995,,
2205200002902,"Avtobusna postaja Kranj","",46.2458155547791,14.3545303477911,,
2207100002302,"Zbiljski gaj","",46.1508218001799,14.4111912157146,,
2207100002203,"Zbilje K","",46.157890523747,14.4120755286085,,
2205200012901,"Podreča maln","",46.1690596652545,14.4136469817236,,
2205200007002,"Podreča","",46.1745209751618,14.4108420797232,,
2205200006701,"Mavčiče","",46.1864646884071,14.405157815355,,
2205200012601,"Kranj Orehek nadvoz","",46.2186880552473,14.3681986576703,,
2205200004301,"Kranj Orehek trg.","",46.2222922154785,14.3639168905598,,
2205200004201,"Kranj Orehek nas.","",46.2259368497528,14.3601345798271,,
2205200003801,"Kranj Labore Draksler","",46.2308893387754,14.3556926311696,,
2205200003302,"Globus","",46.2419706487331,14.3554565377656,,
2205200006601,"Kranj ŽP","",46.2372765577549,14.3493761560319,,
2205200003802,"Kranj Labore Draksler","",46.2305268966506,14.3559116621921,,
2205200004202,"Kranj Orehek nas.","",46.2252891242154,14.3604097998937,,
2205200004302,"Kranj Orehek trg.","",46.2217216680757,14.364417933581,,
2205200012602,"Kranj Orehek nadvoz","",46.2189636497382,14.3677140798856,,
2205200001601,"Drulovka","",46.2157441412741,14.3750129945467,,
2205200001102,"Breg Aleš","",46.2130872944106,14.3844759191434,,
2205200001202,"Breg ob Savi","",46.2084606337446,14.3910838530439,,
2205200002501,"Jama/Prašah","",46.1997673241305,14.3985038230902,,
2205200007101,"Praše","",46.194101464716,14.4013215462802,,
2205200006702,"Mavčiče","",46.1871749791054,14.4046408691431,,
2205200007001,"Podreča","",46.1729844085457,14.4110942229852,,
2205200012902,"Podreča maln","",46.168438081177,14.4137220196764,,
2205200007102,"Praše","",46.1941553337927,14.4013852201823,,
2205200002502,"Jama/Prašah","",46.1995833745694,14.3988152323587,,
2205200001201,"Breg ob Savi","",46.2092030584394,14.3902895988507,,
2205200001101,"Breg Aleš","",46.2131524732811,14.3845994783167,,
2205200001602,"Drulovka","",46.2160960299347,14.3747146710978,,
2205200012501,"Drulovka cerkev","",46.2178682004875,14.3714277578493,,
2206108020201,"Kino Šiška","",46.0696395289085,14.4895261486076,,
2218600000402,"Trzin Vas","",46.1380927016128,14.5631795952383,,
2207200000102,"Loka pri Mengšu","",46.1510536259736,14.5671385097436,,
2207200000501,"Mengeš Petrol","",46.1567677678958,14.5690951018922,,
2207200000302,"Mengeš Lovec","",46.1641077425559,14.5713814514359,,
2207200000401,"Mengeš Pavovec","",46.1679570255641,14.5727251234387,,
2207200000602,"Topole","",46.1818731011343,14.5613274851096,,
2216400000402,"Moste","",46.1949980569142,14.548234318924,,
2216400000102,"Komenda Š","",46.2021781610202,14.5426065894284,,
2216400000202,"Komenda Vas","",46.2053092510041,14.5392748300417,,
2216400000502,"Nasovče","",46.2091970788525,14.5163773155601,,
2201200001002,"Lahovče","",46.2154717052589,14.5047884823442,,
2201200001901,"Vopovlje","",46.2253501215047,14.491086159585,,
2201200001501,"Spodnji Brnik","",46.2278152087671,14.4860059127488,,
2201200001101,"Letališče Brnik","",46.2308155580308,14.4559995054839,,
2206101020402,"Stadion","",46.0694054750977,14.5104826181623,,
2206101030302,"AMZS","",46.0773204706105,14.5122815390444,,
2206101031302,"Ruski car","",46.0906176406018,14.5140338645222,,
2206121041102,"Rogovilc","",46.1026005238453,14.5314443048432,,
2206100000102,"Dobrava pri Črnučah","",46.1137863655941,14.5472763495598,,
2218600000202,"Trzin Industrijska cona","",46.1199026341445,14.5516906825162,,
2218600000301,"Trzin Mlake","",46.1291769887236,14.559240800669,,
2218600000101,"Trzin GD","",46.1329904464425,14.5640796883605,,
2207200000502,"Mengeš Petrol","",46.1575456900411,14.569202829894,,
2207200000101,"Loka pri Mengšu","",46.1503920014479,14.5667553666027,,
2218600000401,"Trzin Vas","",46.1390940730038,14.5631039098624,,
2218600000102,"Trzin GD","",46.1332067627687,14.564254780737,,
2218600000302,"Trzin Mlake","",46.1292858603682,14.5590899962405,,
2218600000201,"Trzin Industrijska cona","",46.1188782001835,14.5505722256108,,
2206100000101,"Dobrava pri Črnučah","",46.1125425593307,14.5462898095831,,
2206121041101,"Rogovilc","",46.1022441415655,14.5297342355974,,
2206101031301,"Ruski car","",46.0901899274991,14.5138539485178,,
2206101030301,"AMZS","",46.0776346284015,14.512091785353,,
2206101020401,"Stadion","",46.0692993362079,14.5102354450069,,
2206102020101,"Viadukt","",46.0594015604024,14.5206695385773,,
2201200001504,"Spodnji Brnik","",46.2274015636068,14.4865542750689,,
2201200001902,"Vopovlje","",46.2248694839874,14.4920518881472,,
2201200001001,"Lahovče","",46.2153169228123,14.5047920774024,,
2216400000501,"Nasovče","",46.2090046676847,14.516552669997,,
2216400000201,"Komenda Vas","",46.205839238003,14.5390805092856,,
2216400000101,"Komenda Š","",46.2021058868814,14.5425107879314,,
2216400000401,"Moste","",46.1949011156945,14.5488707471662,,
2207200000601,"Topole","",46.1816757823562,14.5614171053415,,
2207200000403,"Mengeš Pavovec","",46.1682819541697,14.5727617820397,,
2207200000301,"Mengeš Lovec","",46.1647926556912,14.5713701668279,,
2202700002702,"Trebija","",46.0961107261266,14.1007763839779,,
2202700000801,"Fužine","",46.0890316589713,14.0974218671295,,
2202700000901,"Fužine I","",46.0839625652048,14.0961058619671,,
2214700001302,"Selo I","",46.0696733969629,14.0919371931991,,
2214700001202,"Selo","",46.0621937182025,14.1010431238682,,
2214700000402,"Dobračeva","",46.0566730095822,14.109597713782,,
2214700001701,"Žiri Market","",46.0526461075894,14.1107747823441,,
2214700001501,"Žiri Dom","",46.047502281028,14.1095292283964,,
2214700001401,"Žiri","",46.0441107444637,14.1074675381863,,
2214700001601,"Žiri K","",46.041751664301,14.1041425854996,,
2214700000201,"Brekovice","",46.0191135208874,14.1229293915784,,
2214700001001,"Podklanec","",46.0095916981873,14.1287333474292,,
2206400001301,"Mlin pri Rovtah","",46.0010820383808,14.1501135888494,,
2206400000801,"Log pri Zavratcu","",45.9937980725812,14.1489613932326,,
2206400000601,"Kamnolom Rovte","",45.987174148051,14.15216673844,,
2206400002201,"Rovte K","",45.9816397446178,14.1713707886425,,
2206400001801,"Petkovec Zavčan","",45.9785987873146,14.1794455550563,,
2206400001702,"Petkovec","",45.9671138383644,14.1831785002011,,
2202700002301,"Srednja vas-Poljane","",46.1131007345201,14.1601232087825,,
2202700001102,"Gorenja vas","",46.1057262140012,14.1435519122616,,
2202700001302,"Hotavlje","",46.1072436478743,14.1186882580137,,
2202700001802,"Podgora","",46.1019756378641,14.1111110500737,,
2202700001701,"Pilovc","",46.095653015372,14.1092336745063,,
2206400002402,"Žibrše K","",45.9585403560958,14.1905082026789,,
2206400000201,"Ceste K","",45.9538316855447,14.1967991220899,,
2206400001102,"Logatec Krpan","",45.9172070912383,14.2241174924756,,
2200100000301,"Ajdovščina Š","",45.8904276295301,13.900530191625,,
2212200000401,"Škofja Loka","",46.1670748479083,14.3063211003909,,
2212200000701,"Škofja Loka Plevna","",46.1668758573341,14.3142333939365,,
2212200000302,"Stari Dvor-Frankovo","",46.1718559836807,14.3250821551372,,
2212200001002,"Trata MD","",46.1730731566621,14.3297479771897,,
2212200000902,"Škofja Loka ŽP","",46.1739893780764,14.3354818069764,,
2212200000501,"Škofja Loka Kroj","",46.1710066087595,14.3399819896971,,
2212200000601,"Škofja Loka Lipica","",46.168623673709,14.3406821803998,,
2212200000201,"Podlubnik","",46.1744714928897,14.2897984991714,,
2212200000101,"Trnje","",46.1738077965973,14.2951186520935,,
2212200000802,"Škofja Loka St.Loka","",46.1703986390661,14.3000990122597,,
2212200000402,"Škofja Loka","",46.1671802092871,14.3065648402012,,
2212200000502,"Škofja Loka Kroj","",46.1710566134589,14.3401149831003,,
2212200000901,"Škofja Loka ŽP","",46.1741233720032,14.3353817976162,,
2212200001001,"Trata MD","",46.1730061035971,14.3284320033428,,
2212200000301,"Stari Dvor-Frankovo","",46.1714389434248,14.3239482095191,,
2212200000702,"Škofja Loka Plevna","",46.1668797491135,14.3159736151795,,
2209700003702,"Šalamenci Bife","",46.7258569770293,16.1382321480615,,
2209700002301,"Pečarovci GD","",46.7461153847932,16.1378601442657,,
2209700003901,"Šalamenci Gostilna Gumilar","",46.7276303218616,16.1243557682702,,
2209700003801,"Šalamenci Bor","",46.7300579883686,16.1135212111721,,
2209700000502,"Bodonci Spodaj","",46.7441026310377,16.1121491899194,,
2209700002602,"Poznanovci","",46.7696251292771,16.126271766758,,
2209700002801,"Prosečka vas","",46.7795257881232,16.1373032203503,,
2215800000902,"Kovačevci Vinšček","",46.7969203683039,16.1232764780203,,
2215800000802,"Kovačevci Lapcovi","",46.7845014960198,16.1238985303763,,
2215800001801,"Vidonci K Kovačevci","",46.8079827064478,16.1331582598118,,
2215800001701,"Vidonci","",46.813641432067,16.1341298409595,,
2215800000102,"Boreča križarka","",46.8271356516917,16.1329437528418,,
2203100000302,"Boreča K","",46.8407823720727,16.1357766495735,,
2203100001402,"Martinje","",46.848099692988,16.1371043151761,,
2203100001501,"Martinje Čerpnjak","",46.8483889124365,16.1540930919003,,
2203100002301,"Ženavlje","",46.8378595406838,16.1795791134485,,
2203100002101,"Šulinci GD","",46.8283482447589,16.1954312150611,,
2201500000401,"Dolnja Bistrica Pokopališče","",46.5456148206577,16.294623440996,,
2201500000602,"Srednja Bistrica","",46.5536256785812,16.2731630783595,,
2201500000502,"Gornja Bistrica","",46.5593867494971,16.2494454369666,,
2200200001701,"Melinci","",46.5725503256903,16.2344737097466,,
2200200001201,"Ižakovci","",46.5848308830672,16.2137207884131,,
2200200001301,"Ižakovci Kapela","",46.586290986785,16.2194858463569,,
2200200000301,"Beltinci Pokopališče","",46.600758104979,16.2349341664717,,
2200200000102,"Beltinci","",46.6089187186743,16.2329168816845,,
2200200000501,"Bratonci K","",46.6192570220685,16.2205179620281,,
2200200001502,"Lipovci K","",46.625074864238,16.2150018107478,,
2200200001501,"Lipovci K","",46.6243053816594,16.2155172070187,,
2200200000502,"Bratonci K","",46.6195322840703,16.2200142898506,,
2200200000101,"Beltinci","",46.6084529884401,16.2336790351096,,
2200200001302,"Ižakovci Kapela","",46.5870634534102,16.2212383612767,,
2200200001702,"Melinci","",46.5724486711475,16.2343624631551,,
2201500000501,"Gornja Bistrica","",46.559275046449,16.2493953545056,,
2201500000601,"Srednja Bistrica","",46.5537081406744,16.2727781731723,,
2208000000101,"Avtobusna postaja Murska Sobota","",46.6587909208544,16.165140444852,,
2208000004101,"Rakičan","",46.65037808858,16.1923239718852,,
2208000004102,"Rakičan","",46.6497683192155,16.193620331755,,
2205900002402,"Nedelica Ginjoc","",46.6164844478097,16.3556588671433,,
2213200000402,"Nedelica Pokopališče","",46.6160323528367,16.3275942899929,,
2213200000701,"Turnišče Cerkev","",46.6187426695212,16.3203339121604,,
2213200000802,"Turnišče Š","",46.6261731278658,16.3132578971786,,
2213200000502,"Renkovci Most","",46.6357561415295,16.3004789039905,,
2215600000101,"Dobrovnik","",46.6519487732076,16.349669117642,,
2215600000201,"Dobrovnik G","",46.6555592487377,16.3421657922378,,
2215600000301,"Strehovci","",46.6629709192929,16.3195176063448,,
2207800001002,"Filovci","",46.6655336246579,16.3052738449209,,
2207800000502,"Bogojina","",46.67155673931,16.2811615516303,,
2207800004702,"Tešanovci Dolnji","",46.6780877041806,16.2524667974788,,
2207800004802,"Tešanovci Kapela","",46.6812683439029,16.2444209484255,,
2207800002601,"Moravske Toplice K","",46.6857942855896,16.2221700253496,,
2207800002501,"Moravske Toplice ","",46.684892637546,16.2190770771261,,
2207800002302,"Martjanci","",46.6855781655276,16.190135496908,,
2208000003501,"Industrijska","",46.6643347544853,16.1749599330429,,
2208000002802,"Markišavci","",46.6836407218514,16.1645070727957,,
2209700003001,"Puconci Most","",46.6987135943062,16.1583588330788,,
2209700002901,"Puconci Cerkev","",46.7034745140458,16.1539340492513,,
2209700001102,"Gorica Zgornja Gorica","",46.7138059271716,16.1508767018068,,
2205900000301,"Dolnji Lakoš","",46.5536326421939,16.4358064244848,,
2205900002001,"Lendava ŽP","",46.5556755384957,16.4476754364859,,
2205900001501,"Lendava","",46.5608813718087,16.4523058899862,,
2205800000801,"Lormanje K","",46.5747935136332,15.8179917055834,,
2205800001501,"Spodnji Žerjavci","",46.5963744345836,15.8533517311837,,
2214800000402,"Ženjak","",46.5994922720711,15.8767999366155,,
2214800000102,"Benedikt","",46.6088877521634,15.8928188442064,,
2208000003302,"Gaj","",46.6524012206183,16.1462743582227,,
2208000003702,"Polanič","",46.6558049867406,16.1550835354081,,
2200200000202,"Beltinci K","",46.604130569462,16.2434628106774,,
2208600000201,"Odranci Cerkev","",46.5888411778995,16.273133766211,,
2208600000102,"Odranci","",46.5854441093425,16.2808704369406,,
2201500000202,"Črenšovci Sabo","",46.5749578302105,16.2892000094935,,
2201500000102,"Črenšovci","",46.5690395875113,16.2937860766131,,
2201500000302,"Dolnja Bistrica K","",46.5490581441649,16.312034484765,,
2205900001102,"Hotiza Grede","",46.5494034387686,16.3251933666919,,
2205900001201,"Hotiza K","",46.551455381872,16.3490088146501,,
2205900001002,"Hotiza","",46.550362443146,16.358811011498,,
2205900001401,"Kapca","",46.554052415485,16.3843277675083,,
2205900000802,"Gaberje","",46.5559812052784,16.4003791565367,,
2208600000202,"Odranci Cerkev","",46.5887567153801,16.2735794934125,,
2200200000201,"Beltinci K","",46.6053629523186,16.2431019602701,,
2208000003701,"Polanič","",46.6558502763355,16.1546588391841,,
2208000003301,"Gaj","",46.6514465821383,16.1436214370217,,
2201000000301,"Gradišče K","",46.6470637530497,16.1096197559303,,
2201000001402,"Tišina","",46.6542219175954,16.09411072155,,
2201000001102,"Petanjci Kapela","",46.6509086482934,16.0780841341114,,
2201000001002,"Petanjci GD","",46.64940063261,16.0673442818382,,
2201000000902,"Petanjci G","",46.6536902302923,16.0570578316814,,
2210000001301,"Radenci","",46.6416429225065,16.0402844829123,,
2210000001602,"Šratovci","",46.6509737461337,16.0245645682496,,
2202900001001,"Mele","",46.6571802019959,16.0186855553636,,
2208000004202,"Rakičan Bolnišnica","",46.6502855001143,16.1873736767479,,
2208000003001,"Bakša","",46.6554918104927,16.1821401615527,,
2205900002802,"Pince-Marof","",46.5155627432655,16.5055358237887,,
2205900002702,"Pince","",46.5260140622756,16.5218073446583,,
2205900000501,"Dolina pri Lendavi Pokopališče","",46.5393131946318,16.5000118772153,,
2205900000201,"Čentiba K","",46.544723853188,16.4873595978263,,
2205900001901,"Lendava Naselje","",46.5562286106525,16.4612274739162,,
2206300001702,"Stročja vas","",46.510764832951,16.2237737748898,,
2217600000401,"Veščica Novaki","",46.5166107566348,16.2504106831607,,
2217600000502,"Veščica","",46.5198386904873,16.2639858861921,,
2217600000202,"Razkrižje","",46.5205734326864,16.275544936769,,
2217600000302,"Šafarsko","",46.5197844828241,16.2856847934303,,
2217600000101,"Gibina","",46.5201413453531,16.300639738567,,
2205900000601,"Gornji Lakoš","",46.5523302207316,16.4187286158255,,
2205900002002,"Lendava ŽP","",46.5547832133291,16.4476991238152,,
2205900000302,"Dolnji Lakoš","",46.5527663685768,16.4301056313635,,
2205900000602,"Gornji Lakoš","",46.5527133188947,16.4176779909098,,
2205900000702,"Gaberje Š","",46.5551890095218,16.4109808079306,,
2205900000801,"Gaberje","",46.5563526778081,16.3988188178177,,
2205900001402,"Kapca","",46.5538765073225,16.3827619006959,,
2205900001001,"Hotiza","",46.5505105315193,16.3572684519374,,
2205900001202,"Hotiza K","",46.5516755879359,16.3474391716709,,
2205900001101,"Hotiza Grede","",46.5494357047202,16.3241034930363,,
2201500000301,"Dolnja Bistrica K","",46.5496251883218,16.3114639811672,,
2201500000201,"Črenšovci Sabo","",46.574715600181,16.2892888053305,,
2202900000401,"Gornja Radgona Arcont","",46.6652445087068,16.0055553011404,,
2202900000301,"Gornja Radgona","",46.6761425095118,15.991124017069,,
2202900001701,"Podgrad","",46.6813128952543,15.97081827523,,
2202900000802,"Lomanoše 5","",46.6755520526892,15.9569317120185,,
2202900000902,"Lomanoše Bistro","",46.6698003806229,15.9466914514714,,
2202900001601,"Plitvički Vrh","",46.6602162510222,15.9291341095265,,
2202900002101,"Spodnja Ščavnica","",46.6511257948777,15.9244679534017,,
2214800000201,"Ihova","",46.6372265490251,15.9121510351396,,
2214800000302,"Trstenik Slovenskih Goricah","",46.6275488744595,15.9063654529592,,
2214800000101,"Benedikt","",46.6080989236464,15.8916998447,,
2214800000401,"Ženjak","",46.5995670157113,15.8778757937589,,
2205800001502,"Spodnji Žerjavci","",46.5973813004978,15.8532856033459,,
2205800000802,"Lormanje K","",46.5747421966545,15.8161090993398,,
2201000000901,"Petanjci G","",46.6533465690848,16.0571298886773,,
2201000001001,"Petanjci GD","",46.6494664328072,16.06677640348,,
2201000001101,"Petanjci Kapela","",46.6506611268855,16.0778065896334,,
2201000001401,"Tišina","",46.6541898820374,16.0936834889778,,
2201000000302,"Gradišče K","",46.6472621097838,16.1088776648615,,
2204700000201,"Kobilje Meja","",46.6912525135171,16.3857051778084,,
2204700000301,"Kobilje","",46.6849010551748,16.3928462187754,,
2204700000202,"Kobilje Meja","",46.6913219007721,16.3857260458225,,
2207800002801,"Motvarjevci Posestvo","",46.7062805002666,16.3483820993276,,
2207800002700,"Motvarjevci Čikečka vas K","",46.7128158376484,16.3412715632887,,
2208000003601,"Mura","",46.6587408109332,16.1767094611854,,
2209700003902,"Šalamenci Gostilna Gumilar","",46.7276262488877,16.1238892211278,,
2209700003701,"Šalamenci Bife","",46.7257871459541,16.1381319401849,,
2209700001101,"Gorica Zgornja Gorica","",46.7136768163102,16.1507417611778,,
